heure;event;SM;AvAr;AvArTdTg_in_move;nb_av_ar;choc;detection_0_text;coef;;Vbatt;Iuser_int;Icharge;;dir;dir ratio;dir bloque;dir bloque_inv;dir cons;dir err;;s_bfm;s_pwd_av;s_pwd_ar;s_pwd_avar;;vit_AvAr;20cm_avar;20cm_avar_proba;20cm_dg;vit_calc;V_limitee_par_tondeuses;V_Roues_RollPitch;Vroues_dR3;vitesse_sense grp tonds;;ajust_PID;G PWM act;H PWM act;I PWM act;J PWM act;;G PWM lu;H PWM lu;I PWM lu;J PWM lu;;G Speed_obj;H Speed_obj;I Speed_obj;J Speed_obj;;G BFM;H BFM;I BFM;J BFM;sBFM;;G s;H s;I s;J s;;G Pwd;H Pwd;I Pwd;J Pwd;sigma_Pwd;sigma_Pwd ratio;sigma_Pwd A5;sigma_Pwd A10;sigma_Pwd d5;sigma_Pwd d10;P_B;P_B ratio 2;BFM_PWD_av_ar;;Pwd Av;Pwd Ar;couple_ar;;kp;ki;kd;T0 pwm;T0 pwm lu;T0 obj;T0 Sense;T0 Sense LT;T0 Sense ET;T0 Sense dET;T0 bfm;T0 v sense;;T1 pwm;T1 pwm lu;T1 obj;T1 Sense;T1 Sense LT;T1 Sense ET;T1 Sense dET;T1 bfm;T1 v sense;;T2 pwm;T2 pwm lu;T2 obj;T2 Sense;T2 Sense LT;T2 Sense ET;T2 Sense dET;T2 bfm;T2 v sense;;sigma_sense_;histo_ratio_pwd;;ch_ev_D_g_20;ch_ev_D_g_5P;ch_ev_D_g_5M;ch_ev_D_g_inv;ch_ev_I_gx_5p;ch_ev_I_gy_5p;ch_ev_I_gz_5p;ch_ev_PI_gx_5;ch_ev_PI_gy_5;ch_ev_PI_gz_5;ch_ev_PI_gv_5p;ch_ev_PI_AX_500ms;ch_ev_PI_AY_500ms;ch_ev_PI_AXY_500ms;ch_ev_PI_AX_1000ms;ch_ev_PI_AY_1000ms;ch_ev_PI_AXY_1000ms;ch_ev_PI_Av5_10XY_sPd5;ch_ev_P_PB_ratio;ch_P_i_sigma_sense;;GPS_dist_5pts;GPS_dist_10pts;GPS_dist_20pts;GPS sBFM 5;GPS sPWD 5;Patine_GPS pwd 5;Patine_GPS bfm 5;Patine_GPS bfm 10;Patine_GPS bfm 20;GPS Heading_0_;GPS dist;k_gps.cap;GPHDT_heading;heading_last_rtkpos;A_moy_rtk;erreur;time_from_last_update;heading;A_moy_mag;A_diff_rtk_mag;heading corr;heading_bb;heading two;pi;;T temp;TAx;TAy;TAz;TAx raw;TAy raw;TAz raw;TAdx;TAdy;TAdz;TAdv;TAdv s5 1;TAdv s15 5;TAx d5;TAy d5;TAz d5;TAx d10;TAy d10;TAz d10; Tseq;;TGx;TGy;TGz;TGx raw;TGy raw;TGz raw;;TKx;TKy;TKz;;TKx raw;TKy raw;TKz raw;;TKx offs;TKy offs;TKz offs;;TKx offs2;TKy offs2;TKz offs2;;T heading;Heading_20cm;T roll ;T pitch;T kest X;T kest Y;T kest Z;T rp_risk;;;1955
08:02:31.005;0;-1;0;0;0;0;_I_gy_5p;100;;1633;99;770;;-13;-31;0;0;0;13;;0;0;0;0;;0;0;0;0;0;0;0;150;0;;100;0;0;0;0;;0;0;0;0;;0;0;0;0;;0;0;0;0;0;;21;0;33;3;;0;0;0;0;0;1;0;0;0;0;0;1;0;;126;74;0;;150;140;50;0;0;0;2;1;0;0;0;255;;0;0;0;0;0;0;0;0;255;;0;0;0;1;1;0;0;0;255;;2;0;;0;0;0;0;-22;-13;5;0;0;0;0;0;0;0;0;0;0;0;0;58;;1;1;1;0;0;0;0;0;0;0;0;100;100;0;0;83;1030;123;0;0;123;114;245;12;;35;41;2;980;7;-5;966;-1;0;0;1;1;2;0;0;0;0;0;0;165;;-4;-1;3;-10;-6;7;;-132;292;-13;;1412;-397;-1217;;1544;-689;-1204;;1415;-399;-1216;;122;0;0;2;423;15;9991;11;;
08:02:31.104;0;-1;0;0;0;0;_I_gy_5p;100;;1633;99;770;;-13;-1;0;0;0;13;;0;0;0;0;;0;0;0;0;0;0;0;150;0;;100;0;0;0;0;;0;0;0;0;;0;0;0;0;;0;0;0;0;0;;21;0;28;3;;0;0;0;0;0;1;0;0;0;0;0;1;0;;120;80;0;;150;140;50;0;0;0;1;1;0;0;0;255;;0;0;0;0;0;0;0;0;255;;0;0;0;1;1;0;0;0;255;;2;0;;0;0;0;0;-30;-7;9;0;0;0;0;0;0;0;0;0;0;0;0;60;;1;1;1;0;0;0;0;0;0;0;0;100;100;0;0;83;1004;122;0;0;122;114;245;12;;35;41;2;980;7;-5;966;0;0;1;1;1;2;0;0;0;0;0;-1;167;;-9;10;5;-15;5;9;;-138;297;-18;;1406;-392;-1222;;1544;-689;-1204;;1415;-399;-1216;;123;0;0;2;420;11;9991;11;;
08:02:31.204;0;-1;0;0;0;0;_I_gy_5p;100;;1633;99;770;;-13;-66;0;0;0;13;;0;0;0;0;;0;0;0;0;0;0;0;150;0;;100;0;0;0;0;;0;0;0;0;;0;0;0;0;;0;0;0;0;0;;22;0;24;3;;0;0;0;0;0;1;0;0;0;0;0;1;0;;111;89;0;;150;140;50;0;0;0;1;1;0;0;0;255;;0;0;0;0;0;0;0;0;255;;0;0;0;1;1;0;0;0;255;;2;0;;0;0;0;0;-22;15;9;0;0;0;0;0;0;0;0;0;0;0;0;55;;1;1;1;0;0;0;0;0;0;0;0;100;100;0;0;83;1004;122;0;0;122;114;245;12;;35;40;2;978;6;-5;964;-1;0;-1;2;1;2;-1;0;-2;-1;0;-1;169;;2;8;-4;-4;3;0;;-132;309;-19;;1412;-380;-1223;;1544;-689;-1204;;1415;-399;-1217;;122;0;0;2;414;15;9991;11;;
08:02:31.304;0;-1;0;0;0;0;_I_gy_5p;100;;1633;99;770;;-13;-7;0;0;0;13;;0;0;0;0;;0;0;0;0;0;0;0;150;0;;100;0;0;0;0;;0;0;0;0;;0;0;0;0;;0;0;0;0;0;;22;0;24;3;;0;0;0;0;0;1;0;0;0;0;0;1;0;;111;89;0;;150;140;50;0;0;0;1;1;0;0;0;255;;0;0;0;0;0;0;0;0;255;;0;0;0;1;1;0;0;0;255;;2;0;;0;0;0;0;-17;31;9;0;0;0;0;0;0;0;0;0;0;0;0;51;;1;1;1;0;0;0;0;0;0;0;0;100;100;0;0;83;1004;122;0;0;122;114;245;12;;35;41;2;979;7;-5;965;-1;0;1;2;2;2;0;0;-1;0;0;-2;171;;-10;-2;2;-16;-7;6;;-137;293;-12;;1407;-396;-1216;;1544;-689;-1204;;1415;-399;-1217;;123;0;0;2;416;14;9991;11;;
08:02:31.404;0;-1;0;0;0;0;_I_gy_5p;100;;1633;99;770;;-13;-60;0;0;0;13;;0;0;0;0;;0;0;0;0;0;0;0;150;0;;100;0;0;0;0;;0;0;0;0;;0;0;0;0;;0;0;0;0;0;;22;0;29;3;;0;0;0;0;0;1;0;0;0;0;0;1;0;;118;82;0;;150;140;50;0;0;0;1;1;0;0;0;255;;0;0;0;0;0;0;0;0;255;;0;0;0;1;1;0;0;0;255;;2;0;;0;0;0;0;-4;13;-4;0;0;0;0;0;0;0;0;0;0;0;0;56;;1;1;1;0;0;0;0;0;0;0;0;100;100;0;0;83;1004;122;0;0;122;114;245;12;;35;41;2;979;7;-5;965;-1;0;-2;5;4;1;1;0;2;0;0;0;173;;7;-8;-2;1;-13;2;;-138;292;-18;;1406;-397;-1222;;1544;-689;-1204;;1415;-399;-1217;;123;0;0;2;419;18;9991;11;;
08:02:31.504;0;-1;0;0;0;0;_I_gy_5p;100;;1633;99;770;;-13;-31;0;0;0;13;;0;0;0;0;;0;0;0;0;0;0;0;150;0;;100;0;0;0;0;;0;0;0;0;;0;0;0;0;;0;0;0;0;0;;21;0;29;3;;0;0;0;0;0;1;0;0;0;0;0;1;0;;120;80;0;;150;140;50;0;0;0;1;1;0;0;0;255;;0;0;0;0;0;0;0;0;255;;0;0;0;1;1;0;0;0;255;;2;0;;0;0;0;0;3;2;8;0;0;0;0;0;0;0;0;0;0;0;0;61;;1;1;1;0;0;0;0;0;0;0;0;100;100;0;0;83;1004;122;0;0;122;114;245;12;;35;41;2;980;7;-5;966;0;0;0;0;3;1;0;0;0;0;0;1;175;;11;10;4;5;5;8;;-138;303;-12;;1406;-386;-1216;;1544;-689;-1204;;1415;-399;-1217;;123;0;0;2;417;21;9991;11;;
08:02:31.605;0;-1;0;0;0;0;_I_gy_5p;100;;1633;100;761;;-13;2;0;0;0;13;;0;0;0;0;;0;0;0;0;0;0;0;150;0;;100;0;0;0;0;;0;0;0;0;;0;0;0;0;;0;0;0;0;0;;21;0;29;3;;0;0;0;0;0;1;0;0;0;0;0;1;0;;120;80;0;;150;140;50;0;0;0;1;1;0;0;0;255;;0;0;0;0;0;0;0;0;255;;0;0;0;1;1;0;0;0;255;;2;0;;0;0;0;0;17;-2;12;0;0;0;0;0;0;0;0;0;0;0;0;55;;1;1;1;0;0;0;0;0;0;0;0;100;100;0;0;83;1004;122;0;0;122;115;245;12;;35;42;2;979;8;-5;965;1;0;-1;2;2;2;1;0;0;1;0;1;177;;5;-4;1;-1;-9;5;;-137;292;-12;;1407;-397;-1216;;1544;-689;-1204;;1415;-399;-1217;;123;0;0;2;419;22;9991;11;;
08:02:31.706;0;-1;0;0;0;0;_I_gy_5p;100;;1633;100;761;;-13;3;0;0;0;13;;0;0;0;0;;0;0;0;0;0;0;0;150;0;;100;0;0;0;0;;0;0;0;0;;0;0;0;0;;0;0;0;0;0;;22;0;35;3;;0;0;0;0;0;1;0;0;0;0;0;1;0;;127;73;0;;150;140;50;0;0;0;1;1;0;0;0;255;;0;0;0;0;0;0;0;0;255;;0;0;0;1;1;0;0;0;255;;2;0;;0;0;0;0;10;7;12;0;0;0;0;0;0;0;0;0;0;0;0;62;;1;1;1;0;0;0;0;0;0;0;0;100;100;0;0;83;1004;122;0;0;122;115;245;12;;35;41;2;978;7;-5;964;-1;0;-2;5;2;2;0;0;-2;0;0;0;179;;2;-17;1;-4;-22;5;;-137;291;-18;;1407;-398;-1222;;1544;-689;-1204;;1415;-399;-1217;;123;0;0;2;423;21;9991;11;;
08:02:31.806;0;-1;0;0;0;0;_I_gy_5p;100;;1633;100;761;;-13;3;0;0;0;13;;0;0;0;0;;0;0;0;0;0;0;0;150;0;;100;0;0;0;0;;0;0;0;0;;0;0;0;0;;0;0;0;0;0;;21;0;24;3;;0;0;0;0;0;1;0;0;0;0;0;1;0;;113;87;0;;150;140;50;0;0;0;1;1;0;0;0;255;;0;0;0;0;0;0;0;0;255;;0;0;0;1;1;0;0;0;255;;2;0;;0;0;0;0;-7;-16;7;0;0;0;0;0;0;0;0;0;0;0;0;50;;1;1;1;0;0;0;0;0;0;0;0;100;100;0;0;83;1004;122;0;0;122;115;246;12;;35;40;2;980;6;-5;966;-2;0;1;5;3;2;-2;0;0;0;0;-1;181;;-7;-3;0;-13;-8;4;;-137;303;-13;;1407;-386;-1217;;1544;-689;-1204;;1415;-399;-1217;;123;0;0;2;423;18;9991;11;;
08:02:31.906;0;-1;0;0;0;0;_I_gy_5p;100;;1633;100;761;;-13;-29;0;0;0;13;;0;0;0;0;;0;0;0;0;0;0;0;150;0;;100;0;0;0;0;;0;0;0;0;;0;0;0;0;;0;0;0;0;0;;22;0;28;3;;0;0;0;0;0;1;0;0;0;0;0;1;0;;117;83;0;;150;140;50;0;0;0;1;1;0;0;0;255;;0;0;0;0;0;0;0;0;255;;0;0;0;1;1;0;0;0;255;;2;0;;0;0;0;0;-8;-21;13;0;0;0;0;0;0;0;0;0;0;0;0;55;;1;1;1;0;0;0;0;0;0;0;0;100;100;0;0;83;1004;122;0;0;122;115;246;12;;35;41;2;978;7;-5;964;-1;0;-1;2;4;2;0;0;0;0;0;-1;183;;2;-10;0;-4;-15;4;;-143;292;-12;;1401;-397;-1216;;1544;-689;-1204;;1415;-399;-1217;;124;0;0;2;422;19;9991;11;;
08:02:32.007;0;-1;0;0;0;0;_I_gy_5p;100;;1633;100;761;;-13;34;0;0;0;13;;0;0;0;0;;0;0;0;0;0;0;0;150;0;;100;0;0;0;0;;0;0;0;0;;0;0;0;0;;0;0;0;0;0;;20;0;31;3;;0;0;0;0;0;1;0;0;0;0;0;1;0;;125;75;0;;150;140;50;0;0;0;2;1;0;0;0;255;;0;0;0;0;0;0;0;0;255;;0;0;0;1;1;0;0;0;255;;2;0;;0;0;0;0;-17;6;16;0;0;0;0;0;0;0;0;0;0;0;0;57;;1;1;1;0;0;0;0;0;0;0;0;100;100;0;0;83;961;124;0;0;124;115;246;12;;35;41;2;981;7;-5;967;-1;0;2;5;4;3;1;0;1;0;0;0;185;;-5;11;4;-11;6;8;;-137;291;-18;;1407;-398;-1222;;1544;-689;-1204;;1415;-399;-1217;;124;0;0;2;421;17;9991;11;;
08:02:32.107;0;-1;0;0;0;0;_I_gy_5p;100;;1633;100;761;;-13;-29;0;0;0;13;;0;0;0;0;;0;0;0;0;0;0;0;150;0;;100;0;0;0;0;;0;0;0;0;;0;0;0;0;;0;0;0;0;0;;22;0;27;3;;0;0;0;0;0;1;0;0;0;0;0;1;0;;116;84;0;;150;140;50;0;0;0;1;1;0;0;0;255;;0;0;0;0;0;0;0;0;255;;0;0;0;1;1;0;0;0;255;;2;0;;0;0;0;0;-6;8;8;0;0;0;0;0;0;0;0;0;0;0;0;54;;1;1;1;0;0;0;0;0;0;0;0;100;100;0;0;83;961;124;0;0;124;115;246;12;;35;41;2;979;7;-5;965;0;0;0;0;3;3;0;0;1;0;0;0;187;;-3;5;0;-9;0;4;;-132;292;-12;;1412;-397;-1216;;1544;-689;-1204;;1415;-399;-1217;;123;0;0;2;417;18;9991;11;;
08:02:32.259;0;-1;0;0;0;0;_I_gy_5p;100;;1633;100;761;;-13;-37;0;0;0;13;;0;0;0;0;;0;0;0;0;0;0;0;150;0;;100;0;0;0;0;;0;0;0;0;;0;0;0;0;;0;0;0;0;0;;20;0;29;3;;0;0;0;0;0;1;0;0;0;0;0;1;0;;131;69;0;;150;140;50;0;0;0;1;1;0;0;0;255;;0;0;0;0;0;0;0;0;255;;0;0;0;1;1;0;0;0;255;;2;0;;0;0;0;0;4;26;11;0;0;0;0;0;0;0;0;0;0;0;0;64;;1;1;1;0;0;0;0;0;0;0;0;100;100;0;0;83;961;124;0;0;124;115;246;12;;35;41;2;978;7;-5;964;0;0;-1;1;2;3;0;0;-2;0;0;-1;189;;3;-9;3;-3;-14;7;;-138;286;-18;;1406;-403;-1222;;1544;-689;-1204;;1415;-399;-1217;;123;0;0;2;417;21;9991;11;;
08:02:32.317;0;-1;0;0;0;0;_I_gy_5p;100;;1633;100;761;;-13;-31;0;0;0;13;;0;0;0;0;;0;0;0;0;0;0;0;150;0;;100;0;0;0;0;;0;0;0;0;;0;0;0;0;;0;0;0;0;0;;20;0;29;3;;0;0;0;0;0;1;0;0;0;0;0;1;0;;123;77;0;;150;140;50;0;0;0;1;1;0;0;0;255;;0;0;0;0;0;0;0;0;255;;0;0;0;1;1;0;0;0;255;;2;0;;0;0;0;0;-7;-16;5;0;0;0;0;0;0;0;0;0;0;0;0;54;;1;1;1;0;0;0;0;0;0;0;0;100;100;0;0;83;961;124;0;0;124;115;246;12;;35;41;2;980;7;-5;966;0;0;0;0;1;3;0;0;1;-1;0;1;191;;-12;-8;-4;-18;-13;0;;-132;309;-18;;1412;-380;-1222;;1544;-689;-1204;;1415;-399;-1217;;123;0;0;2;423;17;9991;11;;
08:02:32.415;0;-1;0;0;0;0;_I_gy_5p;100;;1633;100;761;;-13;36;0;0;0;13;;0;0;0;0;;0;0;0;0;0;0;0;150;0;;100;0;0;0;0;;0;0;0;0;;0;0;0;0;;0;0;0;0;0;;21;0;29;3;;0;0;0;0;0;1;0;0;0;0;0;1;0;;121;79;0;;150;140;50;0;0;0;1;1;0;0;0;255;;0;0;0;0;0;0;0;0;255;;0;0;0;1;1;0;0;0;255;;2;0;;0;0;0;0;-9;-14;8;0;0;0;0;0;0;0;0;0;0;0;0;55;;1;1;1;0;0;0;0;0;0;0;0;100;100;0;0;83;961;124;0;0;124;114;246;12;;35;41;1;978;7;-6;964;0;-1;-2;5;2;3;0;-1;0;0;0;0;193;;-7;3;4;-13;-2;8;;-138;304;-6;;1406;-385;-1210;;1544;-689;-1204;;1415;-399;-1217;;123;0;0;2;417;16;9991;11;;
08:02:32.515;0;-1;0;0;0;0;_I_gy_5p;100;;1633;103;752;;-13;5;0;0;0;13;;0;0;0;0;;0;0;0;0;0;0;0;150;0;;100;0;0;0;0;;0;0;0;0;;0;0;0;0;;0;0;0;0;0;;21;0;26;3;;0;0;0;0;0;1;0;0;0;0;0;1;0;;117;83;0;;150;140;50;0;0;0;1;1;0;0;0;255;;0;0;0;0;0;0;0;0;255;;0;0;0;1;1;0;0;0;255;;2;0;;0;0;0;0;-15;11;7;0;0;0;0;0;0;0;0;0;0;0;0;52;;1;1;1;0;0;0;0;0;0;0;0;100;100;0;0;83;961;124;0;0;124;114;246;12;;35;41;2;981;7;-5;967;0;0;1;1;2;3;0;0;1;0;0;1;195;;-6;5;0;-12;0;4;;-132;291;-13;;1412;-398;-1217;;1544;-689;-1204;;1415;-399;-1217;;123;0;0;2;417;16;9991;11;;
08:02:32.615;0;-1;0;0;0;0;_I_gy_5p;100;;1633;103;752;;-13;-37;0;0;0;13;;0;0;0;0;;0;0;0;0;0;0;0;150;0;;100;0;0;0;0;;0;0;0;0;;0;0;0;0;;0;0;0;0;0;;22;0;26;3;;0;0;0;0;0;1;0;0;0;0;0;1;0;;114;86;0;;150;140;50;0;0;0;1;1;0;0;0;255;;0;0;0;0;0;0;0;0;255;;0;0;0;1;1;0;0;0;255;;2;0;;0;0;0;0;-10;-3;7;0;0;0;0;0;0;0;0;0;0;0;0;53;;1;1;1;0;0;0;0;0;0;0;0;100;100;0;0;83;961;124;0;0;124;114;246;12;;35;40;2;979;6;-5;965;-2;0;0;4;4;2;0;1;0;0;0;1;197;;1;-5;1;-5;-10;5;;-132;297;-13;;1412;-392;-1217;;1544;-689;-1204;;1415;-399;-1217;;123;0;0;2;419;18;9991;11;;
08:02:32.717;0;-1;0;0;0;0;_I_gy_5p;100;;1633;103;752;;-13;-4;0;0;0;13;;0;0;0;0;;0;0;0;0;0;0;0;150;0;;100;0;0;0;0;;0;0;0;0;;0;0;0;0;;0;0;0;0;0;;20;0;28;3;;0;0;0;0;0;1;0;0;0;0;0;1;0;;121;79;0;;150;140;50;0;0;0;1;1;0;0;0;255;;0;0;0;0;0;0;0;0;255;;0;0;0;1;1;0;0;0;255;;2;0;;0;0;0;0;6;5;1;0;0;0;0;0;0;0;0;0;0;0;0;53;;1;1;1;0;0;0;0;0;0;0;0;100;100;0;0;83;961;124;0;0;124;114;246;12;;35;41;2;980;7;-5;966;1;0;0;1;2;2;-1;0;0;0;0;0;199;;5;-6;2;-1;-11;6;;-137;292;-18;;1407;-397;-1222;;1544;-689;-1204;;1415;-399;-1217;;123;0;0;2;416;22;9991;11;;
08:02:32.816;0;-1;0;0;0;0;_I_gy_5p;100;;1633;103;752;;-13;94;0;0;0;13;;0;0;0;0;;0;0;0;0;0;0;0;150;0;;100;0;0;0;0;;0;0;0;0;;0;0;0;0;;0;0;0;0;0;;21;0;31;3;;0;0;0;0;0;1;0;0;0;0;0;1;0;;123;77;0;;150;140;50;0;0;0;1;1;0;0;0;255;;0;0;0;0;0;0;0;0;255;;0;0;0;1;1;0;0;0;255;;2;0;;0;0;0;0;5;7;6;0;0;0;0;0;0;0;0;0;0;0;0;57;;1;1;1;0;0;0;0;0;0;0;0;100;100;0;0;83;961;124;0;0;124;115;247;12;;35;40;2;979;6;-5;965;-1;0;0;1;2;2;0;0;0;-1;0;0;201;;-7;-1;-4;-13;-6;0;;-143;297;-19;;1401;-392;-1223;;1544;-689;-1204;;1415;-399;-1217;;123;0;0;2;414;19;9991;11;;
08:02:32.916;0;-1;0;0;0;0;_I_gy_5p;100;;1633;103;752;;-13;6;0;0;0;13;;0;0;0;0;;0;0;0;0;0;0;0;150;0;;100;0;0;0;0;;0;0;0;0;;0;0;0;0;;0;0;0;0;0;;22;0;22;3;;0;0;0;0;0;1;0;0;0;0;0;1;0;;107;93;0;;150;140;50;0;0;0;1;1;0;0;0;255;;0;0;0;0;0;0;0;0;255;;0;0;0;1;1;0;0;0;255;;2;0;;0;0;0;0;1;-19;16;0;0;0;0;0;0;0;0;0;0;0;0;49;;1;1;1;0;0;0;0;0;0;0;0;100;100;0;0;83;961;124;0;0;124;114;247;12;;35;41;2;980;7;-5;966;0;0;1;1;1;2;0;0;0;0;0;-1;203;;5;-7;8;-1;-12;12;;-132;309;-18;;1412;-380;-1222;;1544;-689;-1204;;1415;-399;-1217;;123;0;0;2;420;21;9991;11;;
08:02:33.017;0;-1;0;0;0;0;_I_gy_5p;100;;1633;103;752;;-13;-39;0;0;0;13;;0;0;0;0;;0;0;0;0;0;0;0;150;0;;100;0;0;0;0;;0;0;0;0;;0;0;0;0;;0;0;0;0;0;;20;0;35;3;;0;0;0;0;0;1;0;0;0;0;0;1;0;;131;69;0;;150;140;50;0;0;0;1;1;0;0;0;255;;0;0;0;0;0;0;0;0;255;;0;0;0;1;1;0;0;0;255;;2;0;;0;0;0;0;-7;-8;8;0;0;0;0;0;0;0;0;0;0;0;0;61;;1;1;1;0;0;0;0;0;0;0;0;100;100;0;0;83;961;124;0;0;124;115;247;12;;35;41;3;980;7;-4;966;-1;0;0;1;1;2;1;1;1;0;1;1;205;;2;7;2;-4;2;6;;-143;298;-6;;1401;-391;-1210;;1544;-689;-1204;;1415;-399;-1217;;123;0;0;2;418;24;9991;11;;
08:02:33.116;0;-1;0;0;0;0;_I_gy_5p;100;;1633;103;752;;-13;-5;0;0;0;13;;0;0;0;0;;0;0;0;0;0;0;0;150;0;;100;0;0;0;0;;0;0;0;0;;0;0;0;0;;0;0;0;0;0;;22;0;27;3;;0;0;0;0;0;1;0;0;0;0;0;1;0;;116;84;0;;150;140;50;0;0;0;1;1;0;0;0;255;;0;0;0;0;0;0;0;0;255;;0;0;0;1;1;0;0;0;255;;2;0;;0;0;0;0;-7;-22;3;0;0;0;0;0;0;0;0;0;0;0;0;54;;1;1;1;0;0;0;0;0;0;0;0;100;101;0;0;83;1037;123;0;0;123;115;247;12;;35;41;2;979;7;-5;965;0;0;0;0;1;2;0;0;-1;1;0;0;207;;-8;-11;-4;-14;-16;0;;-137;292;-12;;1407;-397;-1216;;1544;-689;-1204;;1415;-399;-1217;;123;0;0;2;425;20;9991;11;;
08:02:33.217;0;-1;0;0;0;0;_I_gy_5p;100;;1633;103;752;;-13;33;0;0;0;13;;0;0;0;0;;0;0;0;0;0;0;0;150;0;;100;0;0;0;0;;0;0;0;0;;0;0;0;0;;0;0;0;0;0;;22;0;30;3;;0;0;0;0;0;1;0;0;0;0;0;1;0;;120;80;0;;150;140;50;0;0;0;2;1;0;0;0;255;;0;0;0;0;0;0;0;0;255;;0;0;0;1;1;0;0;0;255;;2;0;;0;0;0;0;-25;-24;0;0;0;0;0;0;0;0;0;0;0;0;0;58;;1;1;1;0;0;0;0;0;0;0;0;100;101;0;0;83;1037;123;0;0;123;114;247;12;;35;42;2;980;8;-5;966;1;0;2;5;2;2;1;-1;0;1;0;0;209;;-15;-3;4;-21;-8;8;;-126;309;-13;;1418;-380;-1217;;1544;-689;-1204;;1415;-399;-1217;;122;0;0;2;426;15;9991;11;;
08:02:33.317;0;-1;0;0;0;0;_I_gy_5p;100;;1633;103;752;;-13;-31;0;0;0;13;;0;0;0;0;;0;0;0;0;0;0;0;150;0;;100;0;0;0;0;;0;0;0;0;;0;0;0;0;;0;0;0;0;0;;21;0;30;3;;0;0;0;0;0;1;0;0;0;0;0;1;0;;122;78;0;;150;140;50;0;0;0;2;1;0;0;0;255;;0;0;0;0;0;0;0;0;255;;0;0;0;1;1;0;0;0;255;;2;0;;0;0;0;0;-45;-27;5;0;0;0;0;0;0;0;0;0;0;0;0;57;;1;1;1;0;0;0;0;0;0;0;0;100;101;0;0;83;1037;123;0;0;123;114;247;12;;35;41;2;979;7;-5;965;0;0;-2;4;2;1;0;0;1;0;0;0;211;;-5;-7;0;-11;-12;4;;-138;286;-18;;1406;-403;-1222;;1544;-689;-1204;;1415;-399;-1217;;123;0;0;2;426;12;9991;11;;
08:02:33.423;0;-1;0;0;0;0;_I_gy_5p;100;;1633;103;752;;-13;39;0;0;0;13;;0;0;0;0;;0;0;0;0;0;0;0;150;0;;100;0;0;0;0;;0;0;0;0;;0;0;0;0;;0;0;0;0;0;;20;0;28;3;;0;0;0;0;0;1;0;0;0;0;0;1;0;;122;78;0;;150;140;50;0;0;0;1;1;0;0;0;255;;0;0;0;0;0;0;0;0;255;;0;0;0;1;1;0;0;0;255;;2;0;;0;0;0;0;-42;-13;15;0;0;0;0;0;0;0;0;0;0;0;0;53;;1;1;1;0;0;0;0;0;0;0;0;100;101;0;0;83;1037;123;0;0;123;114;247;12;;35;42;2;979;8;-5;965;0;0;-1;1;3;1;0;0;-1;0;-1;0;213;;-6;-7;2;-12;-12;6;;-137;297;-19;;1407;-392;-1223;;1544;-689;-1204;;1415;-399;-1217;;123;0;0;2;427;13;9991;11;;
08:02:33.524;0;-1;0;0;0;0;_I_gy_5p;100;;1633;100;777;;-13;5;0;0;0;13;;0;0;0;0;;0;0;0;0;0;0;0;150;0;;100;0;0;0;0;;0;0;0;0;;0;0;0;0;;0;0;0;0;0;;21;0;24;3;;0;0;0;0;0;1;0;0;0;0;0;1;0;;113;87;0;;150;140;50;0;0;0;2;1;0;0;0;255;;0;0;0;0;0;0;0;0;255;;0;0;0;1;1;0;0;0;255;;2;0;;0;0;0;0;-20;-16;2;0;0;0;0;0;0;0;0;0;0;0;0;51;;1;1;1;0;0;0;0;0;0;0;0;100;101;0;0;83;1037;123;0;0;123;114;247;12;;35;41;2;980;7;-5;966;-1;0;1;2;2;2;0;0;0;1;0;1;215;;-3;-11;0;-9;-16;4;;-132;315;-18;;1412;-374;-1222;;1544;-689;-1204;;1415;-399;-1217;;123;0;0;2;428;14;9991;11;;
08:02:33.625;0;-1;0;0;0;0;_I_gy_5p;100;;1633;100;777;;-13;-3;0;0;0;13;;0;0;0;0;;0;0;0;0;0;0;0;150;0;;100;0;0;0;0;;0;0;0;0;;0;0;0;0;;0;0;0;0;0;;21;0;34;3;;0;0;0;0;0;1;0;0;0;0;0;1;0;;128;72;0;;150;140;50;0;0;0;1;1;0;0;0;255;;0;0;0;0;0;0;0;0;255;;0;0;0;1;1;0;0;0;255;;2;0;;0;0;0;0;-19;-34;5;0;0;0;0;0;0;0;0;0;0;0;0;60;;1;1;1;0;0;0;0;0;0;0;0;100;101;0;0;83;1037;123;0;0;123;114;247;12;;35;42;3;981;8;-4;967;2;1;2;9;3;2;-1;1;2;0;0;1;217;;3;-7;6;-3;-12;10;;-127;298;-12;;1417;-391;-1216;;1544;-689;-1204;;1415;-399;-1217;;122;0;0;2;429;17;9991;11;;
08:02:33.725;0;-1;0;0;0;0;_I_gy_5p;100;;1633;100;777;;-13;-3;0;0;0;13;;0;0;0;0;;0;0;0;0;0;0;0;150;0;;100;0;0;0;0;;0;0;0;0;;0;0;0;0;;0;0;0;0;0;;21;0;29;3;;0;0;0;0;0;1;0;0;0;0;0;1;0;;120;80;0;;150;140;50;0;0;0;1;1;0;0;0;255;;0;0;0;0;0;0;0;0;255;;0;0;0;1;1;0;0;0;255;;2;0;;0;0;0;0;-16;-32;9;0;0;0;0;0;0;0;0;0;0;0;0;60;;1;1;1;0;0;0;0;0;0;0;0;100;101;0;0;83;1037;123;0;0;123;113;247;12;;35;41;3;978;7;-4;964;-1;1;-1;3;4;2;1;1;-2;0;1;-1;219;;1;7;3;-5;2;7;;-132;309;-18;;1412;-380;-1222;;1544;-689;-1204;;1415;-399;-1217;;122;0;0;2;428;19;9991;11;;
08:02:33.825;0;-1;0;0;0;0;_I_gy_5p;100;;1633;100;777;;-13;-38;0;0;0;13;;0;0;0;0;;0;0;0;0;0;0;0;150;0;;100;0;0;0;0;;0;0;0;0;;0;0;0;0;;0;0;0;0;0;;20;0;29;3;;0;0;0;0;0;1;0;0;0;0;0;1;0;;123;77;0;;150;140;50;0;0;0;2;1;0;0;0;255;;0;0;0;0;0;0;0;0;255;;0;0;0;1;1;0;0;0;255;;2;0;;0;0;0;0;-3;-3;15;0;0;0;0;0;0;0;0;0;0;0;0;55;;1;1;1;0;0;0;0;0;0;0;0;101;101;0;0;83;1037;123;0;0;123;114;246;12;;35;40;2;980;6;-5;966;-1;0;2;5;5;3;-2;-1;-1;-1;0;-1;221;;0;7;0;-6;2;4;;-133;292;-13;;1411;-397;-1217;;1544;-689;-1204;;1415;-399;-1217;;123;0;0;2;420;20;9991;11;;
08:02:33.925;0;-1;0;0;0;0;_I_gy_5p;100;;1633;100;777;;-13;-32;0;0;0;13;;0;0;0;0;;0;0;0;0;0;0;0;150;0;;100;0;0;0;0;;0;0;0;0;;0;0;0;0;;0;0;0;0;0;;20;0;29;3;;0;0;0;0;0;1;0;0;0;0;0;1;0;;123;77;0;;150;140;50;0;0;0;2;1;0;0;0;255;;0;0;0;0;0;0;0;0;255;;0;0;0;1;1;0;0;0;255;;2;0;;0;0;0;0;-1;21;7;0;0;0;0;0;0;0;0;0;0;0;0;55;;1;1;1;0;0;0;0;0;0;0;0;101;101;0;0;83;1037;123;0;0;123;114;246;12;;35;41;2;979;7;-5;965;0;0;-1;1;2;3;0;-1;2;-1;0;0;223;;0;-9;0;-6;-14;4;;-132;291;-19;;1412;-398;-1223;;1544;-689;-1204;;1415;-399;-1217;;123;0;0;2;419;19;9991;11;;
08:02:34.026;0;-1;0;0;0;0;_I_gy_5p;100;;1633;100;777;;-13;-39;0;0;0;13;;0;0;0;0;;0;0;0;0;0;0;0;150;0;;100;0;0;0;0;;0;0;0;0;;0;0;0;0;;0;0;0;0;0;;22;0;24;3;;0;0;0;0;0;1;0;0;0;0;0;1;0;;110;90;0;;150;140;50;0;0;0;1;1;0;0;0;255;;0;0;0;0;0;0;0;0;255;;0;0;0;1;1;0;0;0;255;;2;0;;0;0;0;0;-12;0;1;0;0;0;0;0;0;0;0;0;0;0;0;50;;1;1;1;0;0;0;0;0;0;0;0;101;101;0;0;83;991;123;0;0;123;114;246;12;;35;42;2;979;8;-5;965;2;0;-1;5;3;3;1;0;-1;0;-1;0;225;;-7;12;3;-13;7;7;;-141;303;-12;;1403;-386;-1216;;1544;-689;-1204;;1415;-399;-1217;;123;0;0;2;421;17;9991;11;;
08:02:34.129;0;-1;0;0;0;0;_I_gy_5p;100;;1633;100;777;;-13;-32;0;0;0;13;;0;0;0;0;;0;0;0;0;0;0;0;150;0;;100;0;0;0;0;;0;0;0;0;;0;0;0;0;;0;0;0;0;0;;21;0;30;3;;0;0;0;0;0;1;0;0;0;0;0;1;0;;122;78;0;;150;140;50;0;0;0;1;1;0;0;0;255;;0;0;0;0;0;0;0;0;255;;0;0;0;1;1;0;0;0;255;;2;0;;0;0;0;0;-17;-30;2;0;0;0;0;0;0;0;0;0;0;0;0;56;;1;1;1;0;0;0;0;0;0;0;0;101;101;0;0;83;991;123;0;0;123;114;246;12;;35;41;2;979;7;-5;965;1;0;-1;2;3;3;0;0;0;-1;0;1;227;;-5;-8;-3;-11;-13;1;;-138;298;-18;;1406;-391;-1222;;1544;-689;-1204;;1415;-399;-1217;;123;0;0;2;421;16;9991;11;;
08:02:34.228;0;-1;0;0;0;0;_I_gy_5p;100;;1633;100;777;;-13;46;0;0;0;13;;0;0;0;0;;0;0;0;0;0;0;0;150;0;;100;0;0;0;0;;0;0;0;0;;0;0;0;0;;0;0;0;0;0;;23;0;26;3;;0;0;0;0;0;1;0;0;0;0;0;1;0;;113;87;0;;150;140;50;0;0;0;1;1;0;0;0;255;;0;0;0;0;0;0;0;0;255;;0;0;0;1;1;0;0;0;255;;2;0;;0;0;0;0;-17;19;3;0;0;0;0;0;0;0;0;0;0;0;0;54;;1;1;1;0;0;0;0;0;0;0;0;101;101;0;0;83;991;123;0;0;123;114;246;12;;35;41;2;980;7;-5;966;0;0;1;1;3;3;0;0;0;0;0;0;229;;-3;5;4;-9;0;8;;-127;297;-24;;1417;-392;-1228;;1544;-689;-1204;;1415;-399;-1217;;123;0;0;2;416;17;9991;11;;
08:02:34.328;0;-1;0;0;0;0;_I_gy_5p;100;;1633;100;777;;-13;-22;0;0;0;13;;0;0;0;0;;0;0;0;0;0;0;0;150;0;;100;0;0;0;0;;0;0;0;0;;0;0;0;0;;0;0;0;0;0;;22;0;32;3;;0;0;0;0;0;1;0;0;0;0;0;1;0;;123;77;0;;150;140;50;0;0;0;1;1;0;0;0;255;;0;0;0;0;0;0;0;0;255;;0;0;0;1;1;0;0;0;255;;2;0;;0;0;0;0;-12;5;-2;0;0;0;0;0;0;0;0;0;0;0;0;59;;1;1;1;0;0;0;0;0;0;0;0;101;101;0;0;83;991;123;0;0;123;114;246;12;;35;40;2;979;6;-5;965;0;0;-2;4;2;4;-1;0;1;-1;0;0;231;;-7;1;0;-13;-4;4;;-138;309;-6;;1406;-380;-1210;;1544;-689;-1204;;1415;-399;-1217;;122;0;0;2;414;17;9991;11;;
08:02:34.434;0;-1;0;0;0;0;_I_gy_5p;100;;1633;100;777;;-13;-0;0;0;0;13;;0;0;0;0;;0;0;0;0;0;0;0;150;0;;100;0;0;0;0;;0;0;0;0;;0;0;0;0;;0;0;0;0;0;;22;0;29;3;;0;0;0;0;0;1;0;0;0;0;0;1;0;;119;81;0;;150;140;50;0;0;0;1;1;0;0;0;255;;0;0;0;0;0;0;0;0;255;;0;0;0;1;1;0;0;0;255;;2;0;;0;0;0;0;8;27;4;0;0;0;0;0;0;0;0;0;0;0;0;56;;1;1;1;0;0;0;0;0;0;0;0;101;101;0;0;83;991;123;0;0;123;114;246;12;;35;41;2;979;7;-5;965;0;0;-2;4;3;2;0;0;-1;0;0;0;233;;8;6;-1;2;1;3;;-138;292;-12;;1406;-397;-1216;;1544;-689;-1204;;1415;-399;-1217;;123;0;0;2;409;22;9992;11;;
08:02:34.534;0;-1;0;0;0;0;_I_gy_5p;100;;1633;105;763;;-13;-95;0;0;0;13;;0;0;0;0;;0;0;0;0;0;0;0;150;0;;100;0;0;0;0;;0;0;0;0;;0;0;0;0;;0;0;0;0;0;;20;0;25;3;;0;0;0;0;0;1;0;0;0;0;0;1;0;;117;83;0;;150;140;50;0;0;0;1;1;0;0;0;255;;0;0;0;0;0;0;0;0;255;;0;0;0;0;1;0;0;0;255;;1;0;;0;0;0;0;16;36;3;0;0;0;0;0;0;0;0;0;0;0;0;50;;1;1;1;0;0;0;0;0;0;0;0;101;101;0;0;83;991;123;0;0;123;114;246;12;;35;41;2;981;7;-5;967;0;0;2;4;3;3;1;0;1;0;0;1;235;;6;3;2;0;-2;6;;-132;291;-18;;1412;-398;-1222;;1544;-689;-1204;;1415;-399;-1217;;123;0;0;2;410;24;9992;11;;
08:02:34.634;0;-1;0;0;0;0;_I_gy_5p;100;;1633;105;763;;-13;37;0;0;0;13;;0;0;0;0;;0;0;0;0;0;0;0;150;0;;100;0;0;0;0;;0;0;0;0;;0;0;0;0;;0;0;0;0;0;;21;0;28;3;;0;0;0;0;0;1;0;0;0;0;0;1;0;;119;81;0;;150;140;50;0;0;0;1;1;0;0;0;255;;0;0;0;0;0;0;0;0;255;;0;0;0;1;1;0;0;0;255;;1;0;;0;0;0;0;7;7;7;0;0;0;0;0;0;0;0;0;0;0;0;54;;1;1;1;0;0;0;0;0;0;0;0;101;101;0;0;83;991;123;0;0;123;114;246;12;;35;41;2;979;7;-5;965;-1;0;0;1;3;3;0;0;0;1;0;0;237;;0;-8;1;-6;-13;5;;-132;287;-19;;1412;-402;-1223;;1544;-689;-1204;;1415;-399;-1217;;123;0;0;2;417;21;9991;11;;
08:02:34.737;0;-1;0;0;0;0;_I_gy_5p;100;;1633;105;763;;-13;17;0;0;0;13;;0;0;0;0;;0;0;0;0;0;0;0;150;0;;100;0;0;0;0;;0;0;0;0;;0;0;0;0;;0;0;0;0;0;;21;0;30;3;;0;0;0;0;0;1;0;0;0;0;0;1;0;;122;78;0;;150;140;50;0;0;0;1;1;0;0;0;255;;0;0;0;0;0;0;0;0;255;;0;0;0;1;1;0;0;0;255;;1;0;;0;0;0;0;-18;-7;12;0;0;0;0;0;0;0;0;0;0;0;0;56;;1;1;1;0;0;0;0;0;0;0;0;101;101;0;0;83;991;123;0;0;123;115;246;12;;35;41;2;980;7;-5;966;0;0;0;0;2;3;0;0;0;1;0;-1;239;;-8;-5;2;-14;-10;6;;-138;291;-6;;1406;-398;-1210;;1544;-689;-1204;;1415;-399;-1217;;123;0;0;2;418;16;9991;11;;
08:02:34.837;0;-1;0;0;0;0;_I_gy_5p;100;;1633;105;763;;-11;532;0;0;0;13;;0;0;0;0;;0;0;0;0;0;0;0;150;0;;100;0;0;0;0;;0;0;0;0;;0;0;0;0;;0;0;0;0;0;;21;0;28;3;;0;0;0;0;0;1;0;0;0;0;0;1;0;;120;80;0;;150;140;50;0;0;0;1;1;0;0;0;255;;0;0;0;0;0;0;0;0;255;;0;0;0;1;1;0;0;0;255;;1;0;;0;0;0;0;-8;12;8;0;0;0;0;0;0;0;0;0;0;0;0;54;;1;1;1;0;0;0;0;0;0;0;0;101;101;0;0;83;991;123;0;0;123;114;246;12;;35;42;2;979;8;-5;965;2;0;0;4;2;3;0;0;0;0;0;-1;241;;-5;3;0;-11;-2;4;;-133;313;-13;;1411;-376;-1217;;1544;-689;-1204;;1415;-398;-1217;;123;0;0;2;414;19;9991;11;;
08:02:34.937;0;-1;0;0;0;0;_I_gy_5p;100;;1633;105;763;;-13;27;0;0;0;11;;0;0;0;0;;0;0;0;0;0;0;0;150;0;;100;0;0;0;0;;0;0;0;0;;0;0;0;0;;0;0;0;0;0;;22;0;37;3;;0;0;0;0;0;1;0;0;0;0;0;1;0;;129;71;0;;150;140;50;0;0;0;1;1;0;0;0;255;;0;0;0;0;0;0;0;0;255;;0;0;0;1;1;0;0;0;255;;1;0;;0;0;0;0;12;8;13;0;0;0;0;0;0;0;0;0;0;0;0;64;;1;1;1;0;0;0;0;0;0;0;0;101;101;0;0;83;991;123;0;0;123;114;246;12;;35;40;2;980;6;-5;966;0;0;1;1;2;2;-1;0;0;-1;0;0;243;;6;-4;4;0;-9;8;;-132;298;-13;;1412;-391;-1217;;1544;-689;-1204;;1415;-398;-1217;;123;0;0;2;413;23;9991;11;;
08:02:35.038;0;-1;0;0;0;0;_I_gy_5p;100;;1633;105;763;;-13;-5;0;0;0;13;;0;0;0;0;;0;0;0;0;0;0;0;150;0;;100;0;0;0;0;;0;0;0;0;;0;0;0;0;;0;0;0;0;0;;21;0;27;3;;0;0;0;0;0;1;0;0;0;0;0;1;0;;118;82;0;;150;140;50;0;0;0;1;1;0;0;0;255;;0;0;0;0;0;0;0;0;255;;0;0;0;1;1;0;0;0;255;;1;0;;0;0;0;0;-6;17;12;0;0;0;0;0;0;0;0;0;0;0;0;53;;1;1;1;0;0;0;0;0;0;0;0;101;101;0;0;83;969;123;0;0;123;114;246;12;;35;41;3;980;7;-4;966;0;1;-1;2;3;3;0;1;2;-1;0;1;245;;1;13;3;-5;8;7;;-137;292;-7;;1407;-397;-1211;;1544;-689;-1204;;1415;-398;-1217;;123;0;0;2;409;21;9992;11;;
08:02:35.139;0;-1;0;0;0;0;_I_gy_5p;100;;1633;105;763;;-13;37;0;0;0;13;;0;0;0;0;;0;0;0;0;0;0;0;150;0;;100;0;0;0;0;;0;0;0;0;;0;0;0;0;;0;0;0;0;0;;22;0;29;3;;0;0;0;0;0;1;0;0;0;0;0;1;0;;118;82;0;;150;140;50;0;0;0;1;1;0;0;0;255;;0;0;0;0;0;0;0;0;255;;0;0;0;1;1;0;0;0;255;;1;0;;0;0;0;0;-10;13;6;0;0;0;0;0;0;0;0;0;0;0;0;56;;1;1;1;0;0;0;0;0;0;0;0;101;101;0;0;83;969;123;0;0;123;114;246;12;;35;41;2;979;7;-5;965;0;-1;-1;2;1;2;1;0;-1;0;1;0;247;;0;-5;-2;-6;-10;2;;-132;291;-25;;1412;-398;-1229;;1544;-689;-1204;;1415;-398;-1217;;123;0;0;2;414;22;9991;11;;
08:02:35.240;0;-1;0;0;0;0;_I_gy_5p;100;;1633;105;763;;-13;-71;0;0;0;13;;0;0;0;0;;0;0;0;0;0;0;0;150;0;;100;0;0;0;0;;0;0;0;0;;0;0;0;0;;0;0;0;0;0;;20;0;33;3;;0;0;0;0;0;1;0;0;0;0;0;1;0;;128;72;0;;150;140;50;0;0;0;2;1;0;0;0;255;;0;0;0;0;0;0;0;0;255;;0;0;0;1;1;0;0;0;255;;2;0;;0;0;0;0;-9;-1;6;0;0;0;0;0;0;0;0;0;0;0;0;59;;1;1;1;0;0;0;0;0;0;0;0;101;101;0;0;83;969;123;0;0;123;114;246;12;;35;41;2;979;7;-5;965;-1;0;0;1;1;2;0;-1;-1;1;0;0;249;;0;-1;3;-6;-6;7;;-137;293;-19;;1407;-396;-1223;;1544;-689;-1204;;1415;-398;-1217;;123;0;0;2;419;20;9991;11;;
08:02:35.343;0;-1;0;0;0;0;_I_gy_5p;100;;1633;105;763;;-13;-45;0;0;0;13;;0;0;0;0;;0;0;0;0;0;0;0;150;0;;100;0;0;0;0;;0;0;0;0;;0;0;0;0;;0;0;0;0;0;;21;0;33;3;;0;0;0;0;0;1;0;0;0;0;0;1;0;;126;74;0;;150;140;50;0;0;0;1;1;0;0;0;255;;0;0;0;0;0;0;0;0;255;;0;0;0;1;1;0;0;0;255;;2;0;;0;0;0;0;-2;-4;3;0;0;0;0;0;0;0;0;0;0;0;0;59;;1;1;1;0;0;0;0;0;0;0;0;101;101;0;0;83;969;123;0;0;123;114;246;12;;35;41;2;980;7;-5;966;0;0;0;0;1;2;0;0;1;1;0;0;251;;2;6;-1;-4;1;3;;-132;286;-12;;1412;-403;-1216;;1544;-689;-1204;;1415;-398;-1217;;123;0;0;2;416;21;9991;11;;
08:02:35.446;0;-1;0;0;0;0;_I_gy_5p;100;;1633;105;763;;-13;31;0;0;0;13;;0;0;0;0;;0;0;0;0;0;0;0;150;0;;100;0;0;0;0;;0;0;0;0;;0;0;0;0;;0;0;0;0;0;;21;0;28;3;;0;0;0;0;0;1;0;0;0;0;0;1;0;;120;80;0;;150;140;50;0;0;0;1;1;0;0;0;255;;0;0;0;0;0;0;0;0;255;;0;0;0;0;1;0;0;0;255;;1;0;;0;0;0;0;-2;14;-2;0;0;0;0;0;0;0;0;0;0;0;0;54;;1;1;1;0;0;0;0;0;0;0;0;101;101;0;0;83;969;123;0;0;123;115;246;12;;35;41;2;980;7;-5;966;0;0;0;0;0;2;0;0;1;0;-1;0;253;;-5;-1;-4;-11;-6;0;;-138;302;-18;;1406;-387;-1222;;1544;-689;-1204;;1415;-398;-1217;;123;0;0;2;416;19;9991;11;;
08:02:35.555;0;-1;0;0;0;0;_I_gy_5p;100;;1633;109;733;;-13;4;0;0;0;13;;0;0;0;0;;0;0;0;0;0;0;0;150;0;;100;0;0;0;0;;0;0;0;0;;0;0;0;0;;0;0;0;0;0;;22;0;29;3;;0;0;0;0;0;1;0;0;0;0;0;1;0;;119;81;0;;150;140;50;0;0;0;1;1;0;0;0;255;;0;0;0;0;0;0;0;0;255;;0;0;0;1;1;0;0;0;255;;1;0;;0;0;0;0;-12;28;-7;0;0;0;0;0;0;0;0;0;0;0;0;56;;1;1;1;0;0;0;0;0;0;0;0;101;101;0;0;83;969;123;0;0;123;114;246;12;;35;43;3;980;9;-4;966;2;0;1;5;1;2;2;1;0;1;0;0;255;;3;20;-1;-3;15;3;;-132;292;-12;;1412;-397;-1216;;1544;-689;-1204;;1415;-398;-1217;;123;0;0;2;415;22;9991;11;;
08:02:35.647;0;-1;0;0;0;0;_I_gy_5p;100;;1633;109;733;;-13;-80;0;0;0;13;;0;0;0;0;;0;0;0;0;0;0;0;150;0;;100;0;0;0;0;;0;0;0;0;;0;0;0;0;;0;0;0;0;0;;21;0;30;3;;0;0;0;0;0;1;0;0;0;0;0;1;0;;122;78;0;;150;140;50;0;0;0;2;1;0;0;0;255;;0;0;0;0;0;0;0;0;255;;0;0;0;1;1;0;0;0;255;;2;0;;0;0;0;0;-20;33;-3;0;0;0;0;0;0;0;0;0;0;0;0;57;;1;1;1;0;0;0;0;0;0;0;0;101;101;0;0;83;969;123;0;0;123;114;246;12;;35;44;5;978;10;-2;964;3;3;-2;22;7;1;2;2;-1;2;2;0;1;;-6;10;-2;-12;5;2;;-132;302;-18;;1412;-387;-1222;;1544;-689;-1204;;1415;-398;-1217;;123;0;0;2;418;25;9991;11;;
08:02:35.746;0;-1;0;0;0;0;_I_gy_5p;100;;1633;109;733;;-13;1;0;0;0;13;;0;0;0;0;;0;0;0;0;0;0;0;150;0;;100;0;0;0;0;;0;0;0;0;;0;0;0;0;;0;0;0;0;0;;22;0;39;3;;0;0;0;0;0;1;0;0;0;0;0;1;0;;131;69;0;;150;140;50;0;0;0;2;1;0;0;0;255;;0;0;0;0;0;0;0;0;255;;0;0;0;0;1;0;0;0;255;;2;0;;0;0;0;0;-27;29;9;0;0;0;0;0;0;0;0;0;0;0;0;66;;1;1;1;0;0;0;0;0;0;0;0;101;101;0;0;83;969;123;0;0;123;114;246;12;;35;40;1;982;6;-6;968;-2;-2;4;24;13;1;-2;-1;1;1;1;0;3;;-20;-3;1;-26;-8;5;;-137;309;-19;;1407;-380;-1223;;1544;-689;-1204;;1415;-398;-1217;;123;0;0;2;420;17;9991;11;;
08:02:35.847;0;-1;0;0;0;0;_I_gy_5p;100;;1633;109;733;;-13;-3;0;0;0;13;;0;0;0;0;;0;0;0;0;0;0;0;150;0;;100;0;0;0;0;;0;0;0;0;;0;0;0;0;;0;0;0;0;0;;20;0;31;3;;0;0;0;0;0;1;0;0;0;0;0;1;0;;125;75;0;;150;140;50;0;0;0;1;1;0;0;0;255;;0;0;0;0;0;0;0;0;255;;0;0;0;0;1;0;0;0;255;;1;0;;0;0;0;0;-102;21;18;0;0;0;0;0;0;0;0;0;0;0;0;55;;1;1;1;0;0;0;0;0;0;0;0;101;101;0;0;83;969;123;0;0;123;114;246;12;;35;35;2;981;1;-5;967;-5;-1;0;26;17;4;-8;-2;4;-4;0;1;5;;-49;9;0;-55;4;4;;-138;292;-17;;1406;-397;-1221;;1544;-689;-1204;;1415;-398;-1217;;123;0;0;2;400;0;9992;11;;
08:02:35.947;0;-1;0;0;0;0;_I_gy_5p;100;;1633;109;733;;-13;4;0;0;0;13;;0;0;0;0;;0;0;0;0;0;0;0;150;0;;100;0;0;0;0;;0;0;0;0;;0;0;0;0;;0;0;0;0;0;;22;0;29;3;;0;0;0;0;0;1;0;0;0;0;0;1;0;;119;81;0;;150;140;50;0;0;0;1;1;0;0;0;255;;0;0;0;0;0;0;0;0;255;;0;0;0;1;1;0;0;0;255;;1;0;;0;0;0;0;-493;-52;68;0;0;0;0;0;0;0;0;0;0;0;0;56;;1;1;1;0;0;0;0;0;0;0;0;101;101;0;0;83;969;123;0;0;123;114;246;12;;35;34;8;995;0;1;981;-11;2;11;246;85;6;-3;7;12;-5;3;10;7;;-294;-61;22;-300;-66;26;;-132;297;-19;;1412;-392;-1223;;1544;-689;-1204;;1415;-398;-1217;;123;0;-1;2;417;-84;9991;11;;
08:02:36.048;0;-1;0;0;0;0;_I_gy_5p;100;;1633;109;733;;-13;-3;0;0;0;13;;0;0;0;0;;0;0;0;0;0;0;0;150;0;;100;0;0;0;0;;0;0;0;0;;0;0;0;0;;0;0;0;0;0;;21;0;25;3;;0;0;0;0;0;1;0;0;0;0;0;1;0;;113;87;0;;150;140;50;0;0;0;1;1;0;0;0;255;;0;0;0;0;0;0;0;0;255;;0;0;0;1;1;0;0;0;255;;1;0;;0;0;0;0;-1253;-342;238;0;0;0;0;0;0;0;0;0;0;0;0;51;;1;1;1;0;0;0;0;0;0;0;0;101;99;0;0;83;1028;123;0;0;123;114;246;12;;35;52;-17;973;18;-24;959;14;-28;-33;2069;522;9;11;-13;2;1;-5;12;9;;-394;-130;107;-400;-135;111;;-142;315;-7;;1402;-374;-1211;;1544;-689;-1204;;1414;-398;-1217;;123;0;-2;3;507;-281;9983;13;;
08:02:36.149;0;-1;0;0;0;0;_I_gy_5p;100;;1633;109;733;;-13;-35;0;0;0;13;;0;0;0;0;;0;0;0;0;0;0;0;150;0;;100;0;0;0;0;;0;0;0;0;;0;0;0;0;;0;0;0;-5;5;;21;0;25;3;;0;0;0;0;0;1;0;0;0;0;0;1;0;;114;86;-5;;150;140;50;0;0;0;1;1;0;0;0;255;;0;0;0;0;0;0;0;0;255;;0;0;0;1;1;0;0;0;255;;1;0;;0;0;0;0;-3337;-1253;590;0;0;0;0;0;0;0;0;0;0;0;0;51;;1;1;1;0;0;0;0;0;0;0;0;101;99;0;0;83;1028;123;0;0;123;114;246;12;;35;48;5;1028;14;-2;1014;8;0;5;89;1136;43;12;-5;33;6;-1;43;11;;-1318;-542;244;-1324;-547;248;;-138;298;-6;;1406;-391;-1210;;1544;-689;-1204;;1414;-398;-1217;;123;0;-6;5;721;-757;9945;35;;
08:02:36.249;0;-1;0;0;0;0;_I_gy_5p;100;;1633;109;733;;-13;-4;0;0;0;13;;0;0;0;0;;0;0;0;0;0;0;0;150;0;;100;0;0;0;0;;0;0;0;0;;0;0;0;0;;5;0;4;-18;27;;22;0;31;3;;0;0;0;0;0;1;0;0;0;0;0;1;0;;122;78;-15;;150;140;50;0;0;0;1;1;0;0;0;255;;0;0;0;0;0;0;0;0;255;;0;0;0;1;1;0;0;0;255;;1;0;;0;0;0;0;-6955;-2906;1228;0;0;0;0;0;0;0;0;0;0;0;0;58;;1;1;1;0;0;0;0;0;0;0;0;101;99;0;0;83;1028;123;0;0;123;114;246;12;;35;61;-24;1028;27;-31;1014;5;-11;-5;171;1174;244;14;-13;48;21;-21;58;13;;-2306;-999;397;-2312;-1004;401;;-138;331;6;;1406;-358;-1198;;1544;-689;-1204;;1414;-398;-1217;;123;0;-12;7;1139;-1673;9793;66;;
08:02:36.350;0;-1;0;0;0;0;_I_gy_5p;100;;1633;109;733;;-13;5;0;0;0;13;;0;0;0;0;;0;0;0;0;0;0;0;150;0;;100;0;0;0;0;;0;0;0;0;;0;0;0;0;;17;0;13;-33;63;;20;0;29;3;;0;0;0;0;0;1;0;0;0;0;0;1;0;;123;77;-20;;150;140;50;0;0;0;1;1;0;0;0;255;;0;0;0;0;0;0;0;0;255;;0;0;0;0;1;0;0;0;255;;1;0;;0;0;0;0;-10672;-4667;1886;0;0;0;0;0;0;0;0;0;0;0;0;54;;1;1;1;0;0;0;0;0;0;0;0;101;99;0;0;83;1028;123;0;0;123;114;246;12;;35;95;-114;973;61;-121;959;11;-36;-20;1817;1432;535;49;-121;-60;51;-101;10;15;;-2531;-1142;463;-2537;-1147;467;;-144;356;20;;1400;-333;-1184;;1544;-689;-1204;;1414;-398;-1217;;123;0;-18;10;1586;-2687;9501;84;;
08:02:36.451;0;-1;0;0;0;0;_I_gy_5p;100;;1633;109;733;;-13;80;0;0;0;13;;0;0;0;0;;0;0;0;0;0;0;0;150;0;;100;0;0;0;0;;0;0;0;0;;0;0;0;0;;16;0;35;-40;92;;21;0;33;3;;0;0;0;0;0;1;0;0;0;0;0;1;0;;126;74;-5;;150;140;50;0;0;0;1;1;0;0;0;255;;0;0;0;0;0;0;0;0;255;;0;0;0;1;1;0;0;0;255;;1;0;;0;0;0;0;-11217;-4514;2222;0;0;0;0;0;0;0;0;0;0;0;0;58;;1;1;1;0;0;0;0;0;0;0;0;101;99;0;0;83;1028;123;0;0;123;114;246;12;;35;110;-172;913;76;-179;899;2;-30;-23;1433;2083;586;49;-144;-115;78;-184;-79;17;;-1531;-245;435;-1537;-250;439;;-166;419;83;;1378;-270;-1121;;1544;-689;-1204;;1414;-398;-1216;;123;0;-21;11;1671;-3256;9306;89;;
08:02:36.553;0;-1;0;0;0;0;_I_gy_5p;100;;1633;121;605;;-13;79;0;0;0;13;;0;0;0;0;;0;0;0;0;0;0;0;150;0;;100;0;0;0;0;;0;0;0;0;;0;0;0;0;;19;0;9;-14;92;;22;0;27;3;;0;0;0;0;0;1;0;0;0;0;0;1;0;;115;85;-5;;150;140;50;0;0;0;1;1;0;0;0;255;;0;0;0;0;0;0;0;0;255;;0;0;0;1;1;0;0;0;255;;1;0;;0;0;0;0;-7882;-2112;1521;0;0;0;0;0;0;0;0;0;0;0;0;58;;1;1;1;0;0;0;0;0;0;0;0;101;99;0;0;83;1028;123;0;0;123;113;246;12;;35;99;-204;887;65;-211;873;-22;13;37;2022;2742;1173;8;-102;-103;80;-252;-184;19;;-463;101;51;-469;96;55;;-155;463;79;;1389;-226;-1125;;1544;-689;-1204;;1414;-398;-1216;;122;0;-21;9;1419;-3277;9341;89;;
08:02:36.653;0;-1;0;0;0;0;_I_gy_5p;100;;1633;121;605;;-13;76;0;0;0;13;;0;0;0;0;;0;0;0;0;0;0;0;150;0;;100;0;0;0;0;;0;0;0;0;;0;0;0;0;;7;0;1;-1;10;;21;0;24;3;;0;0;0;0;0;1;0;0;0;0;0;1;0;;113;87;-0;;150;140;50;0;0;0;1;1;0;0;0;255;;0;0;0;0;0;0;0;0;255;;0;0;0;1;1;0;0;0;255;;1;0;;0;0;0;0;-4076;90;943;0;0;0;0;0;0;0;0;0;0;0;0;50;;1;1;1;0;0;0;0;0;0;0;0;101;99;0;0;83;1028;123;0;0;123;112;246;12;;35;100;-222;945;66;-229;931;-17;21;-36;2026;4455;1500;-10;-50;78;51;-239;-111;21;;-548;52;178;-554;47;182;;-155;451;92;;1389;-238;-1112;;1544;-689;-1204;;1414;-397;-1216;;121;0;-20;8;1273;-3205;9386;88;;
08:02:36.755;0;-1;0;0;0;0;_I_gy_5p;100;;1633;121;605;;-12;205;0;0;0;13;;0;0;0;0;;0;0;0;0;0;0;0;150;0;;100;0;0;0;0;;0;0;0;0;;0;0;0;0;;1;0;0;-0;10;;22;0;30;3;;0;0;0;0;0;1;0;0;0;0;0;1;0;;121;79;-0;;150;140;50;0;0;0;1;1;0;0;0;255;;0;0;0;0;0;0;0;0;255;;0;0;0;1;1;0;0;0;255;;1;0;;0;0;0;0;-2952;240;507;0;0;0;0;0;0;0;0;0;0;0;0;50;;1;1;1;0;0;0;0;0;0;0;0;101;99;0;0;83;1028;123;0;0;123;111;246;12;;35;100;-246;953;66;-253;939;13;-4;-9;266;3171;2204;-11;-33;45;3;-164;-8;23;;-766;43;11;-772;38;15;;-149;457;104;;1395;-232;-1100;;1544;-689;-1204;;1414;-397;-1216;;120;0;-21;7;1121;-3294;9375;88;;
08:02:36.857;0;-1;0;0;0;0;_I_gy_5p;100;;1633;121;605;;-12;140;0;0;0;12;;0;0;0;0;;0;0;0;0;0;0;0;150;0;;100;0;0;0;0;;0;0;0;0;;0;0;0;0;;1;0;0;-0;1;;22;0;30;3;;0;0;0;0;0;1;0;0;0;0;0;1;0;;121;79;-0;;150;140;50;0;0;0;1;1;0;0;0;255;;0;0;0;0;0;0;0;0;255;;0;0;0;1;1;0;0;0;255;;1;0;;0;0;0;0;-3903;160;326;0;0;0;0;0;0;0;0;0;0;0;0;57;;1;1;1;0;0;0;0;0;0;0;0;99;99;0;0;83;1028;123;0;0;123;110;242;12;;35;115;-263;965;81;-270;951;-2;-9;19;446;800;2887;24;-38;10;-3;-104;65;25;;-1058;1;36;-1064;-4;40;;-149;487;117;;1395;-202;-1087;;1544;-689;-1204;;1414;-397;-1216;;119;0;-22;7;1113;-3527;9291;90;;
08:02:36.954;0;-1;0;0;0;0;_I_gy_5p;100;;1633;121;605;;-12;167;0;0;0;12;;0;0;0;0;;0;0;0;0;0;0;0;150;0;;100;0;0;0;0;;0;0;0;0;;0;0;0;0;;4;0;4;-0;2;;22;0;29;3;;0;0;0;0;0;1;0;0;0;0;0;1;0;;118;82;2;;150;140;50;0;0;0;1;1;0;0;0;255;;0;0;0;0;0;0;0;0;255;;0;0;0;1;1;0;0;0;255;;1;0;;0;0;0;0;-5316;58;188;0;0;0;0;0;0;0;0;0;0;0;0;53;;1;1;1;0;0;0;0;0;0;0;0;99;99;0;0;83;1028;123;0;0;123;110;242;12;;35;109;-283;972;75;-290;958;-10;0;31;1061;633;2944;8;-41;13;5;-73;76;27;;-1375;5;58;-1381;0;62;;-161;487;130;;1383;-202;-1074;;1544;-689;-1204;;1414;-396;-1215;;119;0;-25;7;1090;-3911;9139;93;;
08:02:37.055;0;-1;0;0;0;0;_I_gy_5p;100;;1633;121;605;;-12;197;0;0;0;12;;0;0;0;0;;0;0;0;0;0;0;0;150;0;;100;0;0;0;0;;0;0;0;0;;0;0;0;0;;4;0;4;-0;7;;22;0;29;3;;0;0;0;0;0;1;0;0;0;0;0;1;0;;118;82;4;;150;140;50;0;0;0;1;1;0;0;0;255;;0;0;0;0;0;0;0;0;255;;0;0;0;1;1;0;0;0;255;;1;0;;0;0;0;0;-6439;18;172;0;0;0;0;0;0;0;0;0;0;0;0;56;;1;1;1;248;0;0;0;0;0;0;0;99;97;0;0;83;979;118;0;0;118;109;242;11;;35;104;-325;931;70;-332;917;-3;-15;9;315;1209;2581;-14;-60;-35;5;-92;-32;29;;-1346;19;-1;-1352;14;3;;-149;516;149;;1395;-173;-1055;;1544;-689;-1204;;1414;-396;-1215;;118;0;-27;7;1044;-4329;8954;95;;
08:02:37.155;0;-1;0;0;0;0;_I_gy_5p;100;;1633;121;605;;-12;149;0;0;0;12;;0;0;0;0;;0;0;0;0;0;0;0;150;0;;100;0;0;0;0;;0;0;0;0;;0;0;0;0;;4;0;6;-0;10;;22;0;25;3;;0;0;0;0;0;1;0;0;0;0;0;1;0;;113;87;6;;150;140;50;0;0;0;1;1;0;0;0;255;;0;0;0;0;0;0;0;0;255;;0;0;0;0;1;0;0;0;255;;1;0;;0;0;0;0;-6631;-64;43;0;0;0;0;0;0;0;0;0;0;0;0;51;;1;1;1;248;0;0;0;0;0;0;0;99;97;0;0;83;979;118;0;0;118;109;242;11;;35;107;-362;899;73;-369;885;0;-6;-5;61;1274;2391;-2;-82;-66;7;-128;-59;31;;-1246;-96;-18;-1252;-101;-14;;-155;528;162;;1389;-161;-1042;;1544;-689;-1204;;1414;-395;-1215;;117;0;-30;7;1053;-4680;8775;96;;
08:02:37.255;0;-1;0;0;0;0;_I_gy_5p;100;;1633;121;605;;-13;1;0;0;0;12;;0;0;0;0;;0;0;0;0;0;0;0;150;0;;100;0;0;0;0;;0;0;0;0;;0;0;0;0;;2;0;3;-0;5;;20;0;30;3;;0;0;0;0;0;1;0;0;0;0;0;1;0;;123;77;3;;150;140;50;0;0;0;1;1;0;0;0;255;;0;0;0;0;0;0;0;0;255;;0;0;0;1;1;0;0;0;255;;1;0;;0;0;0;0;-6649;-235;86;0;0;0;0;0;0;0;0;0;0;0;0;55;;1;1;1;248;0;0;0;0;0;0;0;99;97;0;0;83;979;118;0;0;118;109;242;11;;35;111;-391;918;77;-398;904;12;-16;4;416;590;2027;2;-60;-6;-13;-144;-55;33;;-1496;-94;75;-1502;-99;79;;-155;534;188;;1389;-155;-1016;;1544;-689;-1204;;1414;-395;-1214;;117;0;-32;7;1052;-5034;8576;97;;
08:02:37.356;0;-1;0;0;0;0;_I_gy_5p;100;;1633;121;605;;-13;-5;0;0;0;13;;0;0;0;0;;0;0;0;0;0;0;0;150;0;;100;0;0;0;0;;0;0;0;0;;0;0;0;0;;0;0;0;-0;1;;20;0;26;3;;0;0;0;0;0;1;0;0;0;0;0;1;0;;119;81;0;;150;140;50;0;0;0;1;1;0;0;0;255;;0;0;0;0;0;0;0;0;255;;0;0;0;1;1;0;0;0;255;;1;0;;0;0;0;0;-7641;-466;322;0;0;0;0;0;0;0;0;0;0;0;0;51;;1;1;1;248;0;0;0;0;0;0;0;99;97;0;0;83;979;118;0;0;118;108;242;11;;35;112;-424;887;78;-431;873;-4;-35;-12;1385;542;1033;11;-55;-16;0;-140;-59;35;;-1844;-103;122;-1850;-108;126;;-155;540;201;;1389;-149;-1003;;1544;-689;-1204;;1414;-394;-1214;;117;0;-36;7;1073;-5518;8270;98;;
08:02:37.458;0;-1;0;0;0;0;_I_gy_5p;100;;1633;121;605;;-13;-6;0;0;0;13;;0;0;0;0;;0;0;0;0;0;0;0;150;0;;100;0;0;0;0;;0;0;0;0;;0;0;0;0;;0;0;0;-0;0;;20;0;29;3;;0;0;0;0;0;1;0;0;0;0;0;1;0;;123;77;0;;150;140;50;0;0;0;1;1;0;0;0;255;;0;0;0;0;0;0;0;0;255;;0;0;0;1;1;0;0;0;255;;1;0;;0;0;0;0;-8843;-471;532;0;0;0;0;0;0;0;0;0;0;0;0;54;;1;1;1;248;0;0;0;0;0;0;0;99;97;0;0;83;979;118;0;0;118;108;242;11;;35;109;-471;850;75;-478;836;5;-9;-16;362;900;850;-6;-93;-68;4;-155;-65;37;;-1867;-57;125;-1873;-62;129;;-149;565;234;;1395;-124;-970;;1544;-689;-1204;;1414;-394;-1213;;117;0;-40;8;1042;-6058;7887;99;;
08:02:37.556;0;-1;0;0;0;0;_I_gy_5p;100;;1632;117;580;;-13;9;0;0;0;13;;0;0;0;0;;0;0;0;0;0;0;0;150;0;;100;0;0;0;0;;0;0;0;0;;0;0;0;0;;0;0;0;-0;0;;20;0;31;3;;0;0;0;0;0;1;0;0;0;0;0;1;0;;126;74;0;;150;140;50;0;0;0;1;1;0;0;0;255;;0;0;0;0;0;0;0;0;255;;0;0;0;1;1;0;0;0;255;;1;0;;0;0;0;0;-9034;-438;592;0;0;0;0;0;0;0;0;0;0;0;0;56;;1;1;1;248;0;0;0;0;0;0;0;99;97;0;0;83;979;118;0;0;118;108;242;11;;35;114;-525;826;80;-532;812;3;-9;12;234;1451;951;4;-102;-70;6;-181;-97;39;;-1708;-55;127;-1714;-60;131;;-155;576;253;;1389;-113;-951;;1544;-689;-1204;;1414;-393;-1213;;117;0;-43;8;1039;-6502;7526;99;;
08:02:37.655;0;-1;0;0;0;0;_I_gy_5p;100;;1632;117;580;;-12;183;0;0;0;13;;0;0;0;0;;0;0;0;0;0;0;0;150;0;;100;0;0;0;0;;0;0;0;0;;0;0;0;0;;-2;0;0;-0;2;;21;0;30;3;;0;0;0;0;0;1;0;0;0;0;0;1;0;;123;77;0;;150;140;50;0;0;0;1;1;0;0;0;255;;0;0;0;0;0;0;0;0;255;;0;0;0;0;1;0;0;0;255;;1;0;;0;0;0;0;-8604;-318;609;0;0;0;0;0;0;0;0;0;0;0;0;55;;1;1;1;248;0;0;0;0;0;0;0;99;97;0;0;83;979;118;0;0;118;108;242;11;;35;112;-551;805;78;-558;791;-9;-18;-4;421;949;1030;6;-71;-38;10;-193;-128;41;;-1652;-55;129;-1658;-60;133;;-143;617;291;;1401;-72;-913;;1544;-689;-1204;;1414;-393;-1212;;116;0;-46;8;1034;-6826;7234;100;;
08:02:37.756;0;-1;0;0;0;0;_I_gy_5p;100;;1632;117;580;;-12;123;0;0;0;12;;0;0;0;0;;0;0;0;0;0;0;0;150;0;;100;0;0;0;0;;0;0;0;0;;0;0;0;0;;-0;0;0;-0;0;;21;0;28;3;;0;0;0;0;0;1;0;0;0;0;0;1;0;;120;80;0;;150;140;50;0;0;0;1;1;0;0;0;255;;0;0;0;0;0;0;0;0;255;;0;0;0;0;1;0;0;0;255;;1;0;;0;0;0;0;-8997;-249;627;0;0;0;0;0;0;0;0;0;0;0;0;53;;1;1;1;248;0;0;0;0;0;0;0;99;97;0;0;83;979;118;0;0;118;107;242;11;;35;112;-561;828;78;-568;814;5;10;20;525;403;963;-7;-44;1;0;-175;-88;43;;-2082;-38;132;-2088;-43;136;;-149;617;318;;1395;-72;-886;;1544;-689;-1204;;1414;-392;-1212;;116;0;-49;8;974;-7186;6886;100;;
08:02:37.856;0;-1;0;0;0;0;_I_gy_5p;100;;1632;117;580;;-13;-30;0;0;0;12;;0;0;0;0;;0;0;0;0;0;0;0;150;0;;100;0;0;0;0;;0;0;0;0;;0;0;0;0;;-2;0;-1;-0;3;;20;0;28;3;;0;0;0;0;0;1;0;0;0;0;0;1;0;;121;79;-1;;150;140;50;0;0;0;1;1;0;0;0;255;;0;0;0;0;0;0;0;0;255;;0;0;0;1;1;0;0;0;255;;1;0;;0;0;0;0;-10248;-308;634;0;0;0;0;0;0;0;0;0;0;0;0;53;;1;1;1;248;0;0;0;0;0;0;0;97;97;0;0;83;979;118;0;0;118;107;234;11;;35;102;-619;767;68;-626;753;-10;-49;-29;3342;1165;855;-6;-54;-35;-1;-136;-69;45;;-2388;-81;122;-2394;-86;126;;-143;623;363;;1401;-66;-841;;1544;-689;-1204;;1414;-391;-1211;;116;0;-53;8;916;-7634;6393;100;;
08:02:37.956;0;-1;0;0;0;0;_I_gy_5p;100;;1632;117;580;;-13;-13;0;0;0;13;;0;0;0;0;;0;0;0;0;0;0;0;150;0;;100;0;0;0;0;;0;0;0;0;;0;0;0;0;;-7;0;-7;-0;15;;22;0;26;3;;0;0;0;0;0;1;0;0;0;0;0;1;0;;114;86;-7;;150;140;50;0;0;0;1;1;0;0;0;255;;0;0;0;0;0;0;0;0;255;;0;0;0;0;1;0;0;0;255;;1;0;;0;0;0;0;-11538;-408;603;0;0;0;0;0;0;0;0;0;0;0;0;52;;1;1;1;248;0;0;0;0;0;0;0;97;97;0;0;83;979;118;0;0;118;107;234;11;;35;98;-664;711;64;-671;697;-1;-21;-23;971;1523;895;-16;-112;-118;-17;-144;-98;47;;-2405;-109;116;-2411;-114;120;;-143;647;389;;1401;-42;-815;;1544;-689;-1204;;1414;-391;-1210;;116;0;-57;8;841;-8114;5784;100;;
08:02:38.056;0;-1;0;0;0;0;_I_gy_5p;100;;1632;117;580;;-12;245;0;0;0;13;;0;0;0;0;;0;0;0;0;0;0;0;150;0;;100;0;0;0;0;;0;0;0;0;;0;0;0;0;;-11;0;-11;-0;21;;20;0;34;3;;0;0;0;0;0;1;0;0;0;0;0;1;0;;130;70;-11;;150;140;50;0;0;0;1;1;0;0;0;255;;0;0;0;0;0;0;0;0;255;;0;0;0;1;1;0;0;0;255;;1;0;;0;0;0;0;-12024;-513;663;0;0;0;0;0;0;0;0;0;0;0;0;59;;1;1;1;283;0;0;0;0;0;0;0;97;-1;0;0;83;998;116;0;0;116;107;234;11;;35;117;-725;646;83;-732;632;1;-21;-29;1283;2098;1226;19;-109;-120;-6;-194;-173;49;;-2411;-103;175;-2417;-108;179;;-144;648;441;;1400;-41;-763;;1544;-689;-1204;;1414;-390;-1209;;116;0;-62;9;842;-8558;5104;100;;
08:02:38.158;0;-1;0;0;0;0;_I_gy_5p;100;;1632;117;580;;-13;23;0;0;0;12;;0;0;0;0;;0;0;0;0;0;0;0;150;0;;100;0;0;0;0;;0;0;0;0;;0;0;0;0;;-6;0;-6;-0;11;;22;0;29;3;;0;0;0;0;0;1;0;0;0;0;0;1;0;;118;82;-6;;150;140;50;0;0;0;1;1;0;0;0;255;;0;0;0;0;0;0;0;0;255;;0;0;0;1;1;0;0;0;255;;1;0;;0;0;0;0;-12028;-486;782;0;0;0;0;0;0;0;0;0;0;0;0;55;;1;1;1;283;0;0;0;0;0;0;0;97;-1;0;0;83;998;116;0;0;116;107;234;11;;35;111;-764;597;77;-771;583;-3;-25;-34;1790;1539;1163;10;-94;-109;6;-220;-236;51;;-2406;-64;163;-2412;-69;167;;-138;659;473;;1406;-30;-731;;1544;-689;-1204;;1414;-389;-1208;;116;0;-66;10;790;-8919;4452;100;;
08:02:38.257;0;-1;0;0;0;0;_I_gy_5p;100;;1632;117;580;;-12;205;0;0;0;13;;0;0;0;0;;0;0;0;0;0;0;0;150;0;;100;0;0;0;0;;0;0;0;0;;0;0;0;0;;-1;0;-1;-0;2;;21;0;31;3;;0;0;0;0;0;1;0;0;0;0;0;1;0;;123;77;-1;;150;140;50;0;0;0;1;1;0;0;0;255;;0;0;0;0;0;0;0;0;255;;0;0;0;1;1;0;0;0;255;;1;0;;0;0;0;0;-11829;-390;808;0;0;0;0;0;0;0;0;0;0;0;0;57;;1;1;1;283;0;0;0;0;0;0;0;97;-1;0;0;83;998;116;0;0;116;108;234;11;;35;104;-800;548;70;-807;534;2;-9;-15;310;1156;1237;-15;-81;-106;2;-225;-252;53;;-2278;-67;150;-2284;-72;154;;-143;694;531;;1401;5;-673;;1544;-689;-1204;;1414;-388;-1207;;116;0;-70;10;708;-9209;3833;100;;
08:02:38.357;0;-1;0;0;0;0;_I_gy_5p;100;;1632;117;580;;-13;15;0;0;0;12;;0;0;0;0;;0;0;0;0;0;0;0;150;0;;100;0;0;0;0;;0;0;0;0;;0;0;0;0;;-1;0;-0;-0;1;;20;0;34;3;;0;0;0;0;0;1;0;0;0;0;0;1;0;;129;71;-0;;150;140;50;0;0;0;1;1;0;0;0;255;;0;0;0;0;0;0;0;0;255;;0;0;0;1;1;0;0;0;255;;1;0;;0;0;0;0;-11647;-329;739;0;0;0;0;0;0;0;0;0;0;0;0;59;;1;1;1;283;0;0;0;0;0;0;0;97;-1;0;0;83;998;116;0;0;116;108;234;11;;35;101;-825;520;67;-832;506;-1;-14;-14;393;956;1381;-8;-57;-73;-3;-184;-223;55;;-2367;-72;147;-2373;-77;151;;-138;684;570;;1406;-5;-634;;1544;-689;-1204;;1414;-388;-1206;;117;0;-74;11;631;-9424;3284;100;;
08:02:38.458;0;-1;0;0;0;0;_I_gy_5p;100;;1632;117;580;;-13;35;0;0;0;13;;0;0;0;0;;0;0;0;0;0;0;0;150;0;;100;0;0;0;0;;0;0;0;0;;0;0;0;0;;-2;0;-2;-0;4;;20;0;30;3;;0;0;0;0;0;1;0;0;0;0;0;1;0;;125;75;-2;;150;140;50;0;0;0;1;1;0;0;0;255;;0;0;0;0;0;0;0;0;255;;0;0;0;1;1;0;0;0;255;;1;0;;0;0;0;0;-11610;-331;751;0;0;0;0;0;0;0;0;0;0;0;0;55;;1;1;1;283;0;0;0;0;0;0;0;97;-1;0;0;83;998;116;0;0;116;108;234;11;;35;97;-861;456;63;-868;442;-3;-8;-16;329;888;1511;-6;-66;-98;-21;-158;-215;57;;-2354;-79;167;-2360;-84;171;;-126;684;609;;1418;-5;-595;;1544;-689;-1204;;1414;-387;-1205;;117;0;-78;11;548;-9625;2656;100;;
08:02:38.558;0;-1;0;0;0;0;_I_gy_5p;100;;1632;138;334;;-13;71;0;0;0;12;;0;0;0;0;;0;0;0;0;0;0;0;150;0;;100;0;0;0;0;;0;0;0;0;;0;0;0;0;;-2;0;-3;-0;5;;23;0;32;3;;0;0;0;0;0;1;0;0;0;0;0;1;0;;121;79;-3;;150;140;50;0;0;0;1;1;0;0;0;255;;0;0;0;0;0;0;0;0;255;;0;0;0;0;1;0;0;0;255;;1;0;;0;0;0;0;-11458;-298;773;0;0;0;0;0;0;0;0;0;0;0;0;59;;1;1;1;283;0;0;0;0;0;0;0;97;-1;0;0;83;998;116;0;0;116;109;234;11;;35;92;-895;381;58;-902;367;-9;-33;-62;5014;1802;1427;-7;-60;-123;-17;-143;-224;59;;-2118;-50;145;-2124;-55;149;;-132;700;641;;1412;11;-563;;1544;-689;-1204;;1414;-386;-1204;;118;0;-80;12;478;-9762;2113;100;;
08:02:38.660;0;-1;0;0;0;0;_I_gy_5p;100;;1632;138;334;;-12;136;0;0;0;13;;0;0;0;0;;0;0;0;0;0;0;0;150;0;;100;0;0;0;0;;0;0;0;0;;0;0;0;0;;-3;0;-2;-0;5;;20;0;34;3;;0;0;0;0;0;1;0;0;0;0;0;1;0;;129;71;-2;;150;140;50;0;0;0;1;1;0;0;0;255;;0;0;0;0;0;0;0;0;255;;0;0;0;1;1;0;0;0;255;;1;0;;0;0;0;0;-10611;-255;767;0;0;0;0;0;0;0;0;0;0;0;0;59;;1;1;1;283;0;0;0;0;0;0;0;97;-1;0;0;83;998;116;0;0;116;110;234;11;;35;95;-910;347;61;-917;333;-1;-8;-20;465;1251;1282;-4;-55;-118;-9;-127;-230;61;;-1866;-35;146;-1872;-40;150;;-126;683;699;;1418;-6;-505;;1544;-689;-1204;;1414;-385;-1202;;118;0;-83;14;432;-9847;1688;100;;
08:02:38.762;0;-1;0;0;0;0;_I_gy_5p;100;;1632;138;334;;-13;-99;0;0;0;12;;0;0;0;0;;0;0;0;0;0;0;0;150;0;;100;0;0;0;0;;0;0;0;0;;0;0;0;0;;-0;0;-1;-0;1;;21;0;36;3;;0;0;0;0;0;1;0;0;0;0;0;1;0;;130;70;-1;;150;140;50;0;0;0;1;1;0;0;0;255;;0;0;0;0;0;0;0;0;255;;0;0;0;1;1;0;0;0;255;;1;0;;0;0;0;0;-9481;-207;706;0;0;0;0;0;0;0;0;0;0;0;0;62;;1;1;1;283;0;0;0;0;0;0;0;97;-1;0;0;83;998;116;0;0;116;111;234;11;;35;87;-932;298;53;-939;284;-1;-6;-12;181;1519;1374;-7;-39;-89;-14;-122;-248;63;;-1741;-47;133;-1747;-52;137;;-120;672;726;;1424;-17;-478;;1544;-689;-1204;;1414;-385;-1201;;119;0;-85;15;363;-9909;1295;100;;
08:02:38.865;0;-1;0;0;0;0;_I_gy_5p;100;;1632;138;334;;-12;115;0;0;0;13;;0;0;0;0;;0;0;0;0;0;0;0;150;0;;100;0;0;0;0;;0;0;0;0;;0;0;0;0;;-2;0;-6;-0;7;;20;0;31;3;;0;0;0;0;0;1;0;0;0;0;0;1;0;;126;74;-6;;150;140;50;0;0;0;1;1;0;0;0;255;;0;0;0;0;0;0;0;0;255;;0;0;0;0;1;0;0;0;255;;1;0;;0;0;0;0;-8998;-175;700;0;0;0;0;0;0;0;0;0;0;0;0;56;;1;1;1;283;0;0;0;0;0;0;0;100;-1;0;0;83;998;116;0;0;116;112;235;11;;35;86;-938;277;52;-945;263;-5;-2;-9;110;521;1284;-6;-26;-66;-14;-95;-213;65;;-1869;-28;146;-1875;-33;150;;-120;678;771;;1424;-11;-433;;1544;-689;-1204;;1414;-384;-1199;;120;0;-87;17;283;-9954;920;100;;
08:02:38.965;0;-1;0;0;0;0;_I_gy_5p;100;;1632;138;334;;-13;-37;0;0;0;12;;0;0;0;0;;0;0;0;0;0;0;0;150;0;;100;0;0;0;0;;0;0;0;0;;0;0;0;0;;-3;0;-4;-0;7;;20;0;28;3;;0;0;0;0;0;1;0;0;0;0;0;1;0;;122;78;-4;;150;140;50;0;0;0;1;1;0;0;0;255;;0;0;0;0;0;0;0;0;255;;0;0;0;1;1;0;0;0;255;;1;0;;0;0;0;0;-9403;-187;713;0;0;0;0;0;0;0;0;0;0;0;0;53;;1;1;1;283;0;0;0;0;0;0;0;100;-1;0;0;83;998;116;0;0;116;113;235;11;;35;82;-953;218;48;-960;204;-4;-4;-27;761;475;1111;-6;-22;-80;-15;-80;-198;67;;-2049;-33;147;-2055;-38;151;;-114;649;808;;1430;-40;-396;;1544;-689;-1204;;1414;-383;-1198;;122;0;-90;19;191;-9991;379;100;;
08:02:39.068;0;-1;0;0;0;0;_I_gy_5p;100;;1632;138;334;;-13;8;0;0;0;13;;0;0;0;0;;0;0;0;0;0;0;0;150;0;;100;0;0;0;0;;0;0;0;0;;0;0;0;0;;-4;0;-6;-0;10;;22;0;26;3;;0;0;0;0;0;1;0;0;0;0;0;1;0;;115;85;-6;;150;140;50;0;0;0;1;1;0;0;0;255;;0;0;0;0;0;0;0;0;255;;0;0;0;1;1;0;0;0;255;;1;0;;0;0;0;0;-10045;-171;726;0;0;0;0;0;0;0;0;0;0;0;0;53;;1;1;1;348;0;0;0;0;0;0;0;100;92;0;0;83;989;122;0;0;122;126;235;12;;35;85;-968;158;51;-975;144;6;-10;-36;1432;812;1080;-4;-28;-116;-14;-61;-195;69;;-2066;-26;142;-2072;-31;146;;-108;659;855;;1436;-30;-349;;1544;-689;-1204;;1414;-382;-1196;;135;0;-94;73;1853;-9825;-192;100;;
08:02:39.165;0;-1;0;0;0;0;_I_gy_5p;100;;1632;138;334;;-13;9;0;0;0;13;;0;0;0;0;;0;0;0;0;0;0;0;150;0;;100;0;0;0;0;;0;0;0;0;;0;0;0;0;;-2;0;-7;-0;9;;19;0;31;3;;0;0;0;0;0;1;0;0;0;0;0;1;0;;127;73;-7;;150;140;50;0;0;0;1;1;0;0;0;255;;0;0;0;0;0;0;0;0;255;;0;0;0;1;1;0;0;0;255;;1;0;;0;0;0;0;-9577;-194;915;0;0;0;0;0;0;0;0;0;0;0;0;55;;1;1;1;348;0;0;0;0;0;0;0;100;92;0;0;83;989;122;0;0;122;152;235;12;;35;91;-989;65;57;-996;51;12;-16;-72;5584;1778;937;7;-35;-145;-5;-59;-232;71;;-1362;-55;321;-1368;-60;325;;-97;619;899;;1447;-70;-305;;1544;-689;-1204;;1414;-382;-1194;;161;0;-95;93;7453;-6663;-245;100;;
08:02:39.265;0;-1;0;0;0;0;_I_gy_5p;100;;1632;138;334;;-13;-57;0;0;0;13;;0;0;0;0;;0;0;0;0;0;0;0;150;0;;100;0;0;0;0;;0;0;0;0;;0;0;0;0;;-0;0;-1;-0;1;;20;0;34;3;;0;0;0;0;0;1;0;0;0;0;0;1;0;;130;70;-1;;150;140;50;0;0;0;1;1;0;0;0;255;;0;0;0;0;0;0;0;0;255;;0;0;0;0;1;0;0;0;255;;1;0;;0;0;0;0;-5518;-119;682;0;0;0;0;0;0;0;0;0;0;0;0;58;;1;1;1;348;0;0;0;0;0;0;0;100;92;0;0;83;989;122;0;0;122;168;235;12;;35;7;-1011;-24;-27;-1018;-38;-105;8;11;11210;6014;1075;-49;-53;-214;-30;-82;-336;73;;336;8;-156;330;3;-152;;-96;623;907;;1448;-66;-297;;1544;-689;-1204;;1414;-381;-1193;;177;0;-92;92;5239;-8514;-267;100;;
08:02:39.366;0;-1;0;0;0;0;_I_gy_5p;100;;1632;138;334;;-12;111;0;0;0;13;;0;0;0;0;;0;0;0;0;0;0;0;150;0;;100;0;0;0;0;;0;0;0;0;;0;0;0;0;;-0;0;-0;-0;0;;21;0;34;3;;0;0;0;0;0;1;0;0;0;0;0;1;0;;128;72;-0;;150;140;50;0;0;0;1;1;0;0;0;255;;0;0;0;0;0;0;0;0;255;;0;0;0;0;1;0;0;0;255;;1;0;;0;0;0;0;-1958;-74;570;0;0;0;0;0;0;0;0;0;0;0;0;59;;1;1;1;348;0;0;0;0;0;0;0;100;92;0;0;83;989;122;0;0;122;176;235;12;;35;102;-963;182;68;-970;168;0;11;63;4090;12614;1149;5;39;155;1;-39;-164;75;;-515;-7;173;-521;-12;177;;-101;614;901;;1443;-75;-303;;1544;-689;-1204;;1414;-381;-1191;;185;0;-91;90;8695;-4925;367;100;;
08:02:39.466;0;-1;0;0;0;0;_I_gy_5p;100;;1632;138;334;;-12;187;0;0;0;12;;0;0;0;0;;0;0;0;0;0;0;0;150;0;;100;0;0;0;0;;0;0;0;0;;0;0;0;0;;-0;0;-0;-0;0;;20;0;31;3;;0;0;0;0;0;1;0;0;0;0;0;1;0;;126;74;-0;;150;140;50;0;0;0;1;1;0;0;0;255;;0;0;0;0;0;0;0;0;255;;0;0;0;0;1;0;0;0;255;;1;0;;0;0;0;0;-1934;-57;733;0;0;0;0;0;0;0;0;0;0;0;0;55;;1;1;1;348;0;0;0;0;0;0;0;100;92;0;0;83;989;122;0;0;122;178;235;12;;35;69;-994;96;35;-1001;82;-17;-7;-23;867;10362;3005;43;8;96;-2;-19;-41;77;;-919;-7;383;-925;-12;387;;-102;617;913;;1442;-72;-291;;1544;-689;-1204;;1414;-380;-1189;;187;0;-88;85;3137;-9485;429;100;;
08:02:39.565;0;-1;0;0;0;0;_I_gy_5p;100;;1631;149;200;;-12;182;0;0;0;12;;0;0;0;0;;0;0;0;0;0;0;0;150;0;;100;0;0;0;0;;0;0;0;0;;0;0;0;0;;-0;0;-0;-0;0;;21;0;31;3;;0;0;0;0;0;1;0;0;0;0;0;1;0;;124;76;-0;;150;140;50;0;0;0;1;1;0;0;0;255;;0;0;0;0;0;0;0;0;255;;0;0;0;0;1;0;0;0;255;;1;0;;0;0;0;0;-4154;-73;1677;0;0;0;0;0;0;0;0;0;0;0;0;55;;1;1;1;348;0;0;0;0;0;0;0;100;92;0;0;83;989;122;0;0;122;176;235;12;;35;52;-989;43;18;-996;29;-18;-1;-21;766;2317;6148;-46;-21;-133;-20;4;16;79;;-920;-21;391;-926;-26;395;;-91;617;932;;1453;-72;-272;;1544;-689;-1204;;1414;-379;-1187;;185;0;-91;74;456;-9990;-16;100;;
08:02:39.665;0;-1;0;0;0;0;_I_gy_5p;100;;1631;149;200;;-19;-1241;0;0;0;12;;0;0;0;0;;0;0;0;0;0;0;0;150;0;;100;0;0;0;0;;0;0;0;0;;0;0;0;0;;-0;0;-0;-0;0;;20;0;36;3;;0;0;0;0;0;1;0;0;0;0;0;1;0;;132;68;-0;;150;140;50;0;0;0;1;1;0;0;0;255;;0;0;0;0;0;0;0;0;255;;0;0;0;1;1;0;0;0;255;;1;0;;0;0;0;0;-4226;-55;1785;0;0;0;0;0;0;0;0;0;0;0;0;61;;1;1;1;348;0;0;0;0;0;0;0;100;92;0;0;83;989;122;0;0;122;181;235;12;;35;40;-989;6;6;-996;-8;-4;3;-12;169;712;6549;-34;2;-90;-41;13;-5;81;;-591;-9;253;-597;-14;257;;-90;606;946;;1454;-83;-258;;1544;-689;-1204;;1414;-379;-1185;;190;0;-92;92;7013;-7126;-189;100;;
08:02:39.767;0;-1;0;0;0;0;_I_gy_5p;100;;1631;149;200;;-12;65;-1;0;0;19;;0;0;0;0;;0;0;0;0;0;0;0;150;0;;100;0;0;0;0;;0;0;0;0;;0;0;0;0;;-0;0;-0;-0;0;;22;0;32;3;;0;0;0;0;0;1;0;0;0;0;0;1;0;;124;76;-0;;150;140;50;0;0;0;1;1;0;0;0;255;;0;0;0;0;0;0;0;0;255;;0;0;0;1;1;0;0;0;255;;1;0;;0;0;0;0;-2757;-70;1165;0;0;0;0;0;0;0;0;0;0;0;0;61;;1;1;1;348;0;0;0;0;0;0;0;100;92;0;0;83;989;122;0;0;122;184;235;12;;35;33;-990;-13;-1;-997;-27;0;7;-1;50;424;6591;-20;-3;-57;-78;-21;-184;83;;-124;-4;54;-130;-9;58;;-78;602;958;;1466;-87;-246;;1544;-689;-1204;;1414;-378;-1183;;192;0;-92;92;6324;-7744;-223;100;;
08:02:39.868;0;-1;0;0;0;0;_I_gy_5p;100;;1631;149;200;;-10;322;0;0;0;12;;0;0;0;0;;0;0;0;0;0;0;0;150;0;;100;0;0;0;0;;0;0;0;0;;0;0;0;0;;-0;0;-0;-0;0;;22;0;29;3;;0;0;0;0;0;1;0;0;0;0;0;1;0;;119;81;-0;;150;140;50;0;0;0;1;1;0;0;0;255;;0;0;0;0;0;0;0;0;255;;0;0;0;0;1;0;0;0;255;;1;0;;0;0;0;0;-1347;-36;584;0;0;0;0;0;0;0;0;0;0;0;0;55;;1;1;1;348;0;0;0;0;0;0;0;92;92;0;0;83;989;122;0;0;122;185;315;12;;35;48;-990;27;14;-997;13;8;1;19;426;315;6494;9;2;25;-43;-2;-109;85;;-206;-2;92;-212;-7;96;;-66;605;959;;1478;-84;-245;;1544;-689;-1204;;1414;-378;-1182;;194;0;-92;92;5805;-8142;-126;100;;
08:02:39.967;0;-1;0;0;0;0;_I_gy_5p;100;;1631;149;200;;-12;114;0;0;0;10;;0;0;0;0;;0;0;0;0;0;0;0;150;0;;100;0;0;0;0;;0;0;0;0;;0;0;0;0;;-0;0;-0;-0;0;;21;0;32;3;;0;0;0;0;0;1;0;0;0;0;0;1;0;;124;76;-0;;150;140;50;0;0;0;1;1;0;0;0;255;;0;0;0;0;0;0;0;0;255;;0;0;0;1;1;0;0;0;255;;1;0;;0;0;0;0;-1744;-26;763;0;0;0;0;0;0;0;0;0;0;0;0;58;;1;1;1;348;0;0;0;0;0;0;0;92;92;0;0;83;989;122;0;0;122;186;315;12;;35;52;-992;50;18;-999;36;-8;-8;8;192;313;4999;23;1;64;-5;1;-5;87;;-794;-2;325;-800;-7;329;;-73;597;966;;1471;-92;-238;;1544;-689;-1204;;1414;-377;-1180;;194;0;-92;91;8972;-4416;31;100;;
08:02:40.068;0;-1;0;0;0;0;_I_gy_5p;100;;1631;149;200;;-12;100;0;0;0;12;;0;0;0;0;;0;0;0;0;0;0;0;150;0;;100;0;0;0;0;;0;0;0;0;;0;0;0;0;;-0;0;-0;-0;0;;20;0;31;3;;0;0;0;0;0;1;0;0;0;0;0;1;0;;126;74;-0;;150;140;50;0;0;0;1;1;0;0;0;255;;0;0;0;0;0;0;0;0;255;;0;0;0;1;1;0;0;0;255;;1;0;;0;0;0;0;-5064;-64;2030;0;0;0;0;0;0;0;0;0;0;0;0;58;;1;1;1;368;0;0;0;0;0;0;0;92;-1;0;0;83;1040;194;0;0;194;185;315;19;;35;69;-999;84;35;-1006;70;8;-3;16;329;355;1260;17;-12;56;30;-4;83;89;;-2072;-29;800;-2078;-34;804;;-72;595;971;;1472;-94;-233;;1544;-689;-1204;;1415;-376;-1178;;194;0;-92;89;8263;-5632;80;100;;
08:02:40.168;0;-1;0;0;0;0;_I_gy_5p;100;;1631;149;200;;-12;81;0;0;0;12;;0;0;0;0;;0;0;0;0;0;0;0;150;0;;100;0;0;0;0;;0;0;0;0;;0;0;0;0;;-0;0;-0;-0;0;;21;0;33;3;;0;0;0;0;0;1;0;0;0;0;0;1;0;;126;74;-0;;150;140;50;0;0;0;1;1;0;0;0;255;;0;0;0;0;0;0;0;0;255;;0;0;0;1;1;0;0;0;255;;1;0;;0;0;0;0;-8022;-208;2592;0;0;0;0;0;0;0;0;0;0;0;0;56;;1;1;1;368;0;0;0;0;0;0;0;92;-1;0;0;83;1040;194;0;0;194;185;315;19;;35;-80;-1022;-178;-114;-1029;-192;-120;-21;-186;49437;11400;506;-114;-26;-206;-43;-20;-46;91;;-1452;-98;131;-1458;-103;135;;-49;583;1003;;1495;-106;-201;;1544;-689;-1204;;1415;-376;-1176;;194;0;-94;91;9317;-3599;-494;100;;
08:02:40.269;0;-1;0;0;0;0;_I_gy_5p;100;;1631;149;200;;-15;-307;0;0;0;12;;0;0;0;0;;0;0;0;0;0;0;0;150;0;;100;0;0;0;0;;0;0;0;0;;0;0;0;0;;-0;0;-0;-0;0;;22;0;28;3;;0;0;0;0;0;1;0;0;0;0;0;1;0;;118;82;-0;;150;140;50;0;0;0;1;1;0;0;0;255;;0;0;0;0;0;0;0;0;255;;0;0;0;1;1;0;0;0;255;;1;0;;0;0;0;0;-6708;-189;1743;0;0;0;0;0;0;0;0;0;0;0;0;59;;1;1;1;368;0;0;0;0;0;0;0;92;-1;0;0;83;1040;194;0;0;194;188;315;19;;35;33;-959;-140;-1;-966;-154;37;-20;62;5613;15048;399;-46;57;-263;-63;23;-226;93;;-387;-20;33;-393;-25;37;;-60;553;1030;;1484;-136;-174;;1544;-689;-1204;;1415;-375;-1174;;197;0;-101;96;7673;-6311;-1139;100;;
08:02:40.368;0;-1;0;0;0;0;_I_gy_5p;100;;1631;149;200;;-11;145;0;0;0;15;;0;0;0;0;;0;0;0;0;0;0;0;150;0;;100;0;0;0;0;;0;0;0;0;;0;0;0;0;;-0;0;-0;-0;0;;20;0;26;3;;0;0;0;0;0;1;0;0;0;0;0;1;0;;118;82;-0;;150;140;50;0;0;0;1;1;0;0;0;255;;0;0;0;0;0;0;0;0;255;;0;0;0;1;1;0;0;0;255;;1;0;;0;0;0;0;-3689;-147;258;0;0;0;0;0;0;0;0;0;0;0;0;55;;1;1;1;368;0;0;0;0;0;0;0;92;-1;0;0;83;1040;194;0;0;194;192;315;19;;35;3;-1017;-67;-31;-1024;-81;-2;-35;66;5585;15048;5362;70;-13;116;-72;6;-237;95;;-856;-28;39;-862;-33;43;;-50;547;1031;;1494;-142;-173;;1544;-689;-1204;;1415;-375;-1172;;201;0;-102;101;6179;-7750;-1327;100;;
08:02:40.468;0;-1;0;0;0;0;_I_gy_5p;100;;1631;149;200;;-12;71;0;0;0;11;;0;0;0;0;;0;0;0;0;0;0;0;150;0;;100;0;0;0;0;;0;0;0;0;;0;0;0;0;;-0;0;-0;-0;0;;20;0;26;3;;0;0;0;0;0;1;0;0;0;0;0;1;0;;118;82;-0;;150;140;50;0;0;0;1;1;0;0;0;255;;0;0;0;0;0;0;0;0;255;;0;0;0;1;1;0;0;0;255;;1;0;;0;0;0;0;-4217;-151;194;0;0;0;0;0;0;0;0;0;0;0;0;51;;1;1;1;368;0;0;0;0;0;0;0;92;-1;0;0;83;1040;194;0;0;194;196;315;19;;35;7;-1000;-106;-27;-1007;-120;5;9;-16;362;2703;7021;-22;-44;44;-46;-5;-162;97;;-1327;-46;47;-1333;-51;51;;-54;558;1049;;1490;-131;-155;;1544;-689;-1204;;1415;-374;-1170;;204;0;-103;104;5659;-8083;-1627;100;;
08:02:40.569;0;-1;0;0;0;0;_I_gy_5p;100;;1630;150;147;;-12;109;0;0;0;12;;0;0;0;0;;0;0;0;0;0;0;0;150;0;;100;0;0;0;0;;0;0;0;0;;0;0;0;0;;-0;0;-0;-0;0;;20;0;27;3;;0;0;0;0;0;1;0;0;0;0;0;1;0;;120;80;-0;;150;140;50;0;0;0;1;1;0;0;0;255;;0;0;0;0;0;0;0;0;255;;0;0;0;0;1;0;0;0;255;;1;0;;0;0;0;0;-5556;-147;170;0;0;0;0;0;0;0;0;0;0;0;0;51;;1;1;1;368;0;0;0;0;0;0;0;92;-1;0;0;83;1040;194;0;0;194;200;315;19;;35;5;-962;-201;-29;-969;-215;8;8;-19;489;2761;7603;0;60;-144;10;12;-66;99;;-995;-15;20;-1001;-20;24;;-50;530;1067;;1494;-159;-137;;1544;-689;-1204;;1415;-374;-1168;;208;0;-105;110;4822;-8489;-2164;100;;
08:02:40.671;0;-1;0;0;0;0;_I_gy_5p;100;;1630;150;147;;-12;89;0;0;0;12;;0;0;0;0;;0;0;0;0;0;0;0;150;0;;100;0;0;0;0;;0;0;0;0;;0;0;0;0;;-0;0;-0;-0;0;;20;0;33;3;;0;0;0;0;0;1;0;0;0;0;0;1;0;;129;71;-0;;150;140;50;0;0;0;2;1;0;0;0;255;;0;0;0;0;0;0;0;0;255;;0;0;0;1;1;0;0;0;255;;1;0;;0;0;0;0;-4954;-119;114;0;0;0;0;0;0;0;0;0;0;0;0;54;;1;1;1;368;0;0;0;0;0;0;0;92;-1;0;0;83;1040;194;0;0;194;206;315;19;;35;3;-962;-219;-31;-969;-233;1;-4;-6;53;1570;7614;-1;35;-103;-9;3;-74;101;;-694;-12;12;-700;-17;16;;-54;517;1075;;1490;-172;-129;;1544;-689;-1204;;1415;-374;-1166;;214;0;-107;119;3747;-8922;-2523;100;;
08:02:40.771;0;-1;0;0;0;0;_I_gy_5p;100;;1630;150;147;;-12;52;0;0;0;12;;0;0;0;0;;0;0;0;0;0;0;0;150;0;;100;0;0;0;0;;0;0;0;0;;0;0;0;0;;-0;0;-0;-0;0;;20;0;33;3;;0;0;0;0;0;1;0;0;0;0;0;1;0;;129;71;-0;;150;140;50;0;0;0;2;1;0;0;0;255;;0;0;0;0;0;0;0;0;255;;0;0;0;1;1;0;0;0;255;;2;0;;0;0;0;0;-3817;-71;58;0;0;0;0;0;0;0;0;0;0;0;0;59;;1;1;1;368;0;0;0;0;0;0;0;92;-1;0;0;83;1040;194;0;0;194;212;315;19;;35;3;-968;-219;-31;-975;-233;1;0;-5;26;160;8219;-2;-9;-15;-1;46;-152;103;;-669;-21;7;-675;-26;11;;-48;516;1094;;1496;-173;-110;;1544;-689;-1204;;1416;-373;-1164;;221;0;-108;129;2834;-9193;-2731;100;;
08:02:40.875;0;-1;0;0;0;0;_I_gy_5p;100;;1630;150;147;;-12;61;0;0;0;12;;0;0;0;0;;0;0;0;0;0;0;0;150;0;;100;0;0;0;0;;0;0;0;0;;0;0;0;0;;-0;0;-0;-0;0;;21;0;31;3;;0;0;0;0;0;1;0;0;0;0;0;1;0;;123;77;-0;;150;140;50;0;0;0;1;1;0;0;0;255;;0;0;0;0;0;0;0;0;255;;0;0;0;1;1;0;0;0;255;;1;0;;0;0;0;0;-3636;-61;36;0;0;0;0;0;0;0;0;0;0;0;0;55;;1;1;1;368;0;0;0;0;0;0;0;123;-1;0;0;83;1040;194;0;0;194;220;59;19;;35;3;-973;-222;-31;-980;-236;0;-1;-5;26;37;7607;0;-10;-4;0;28;-120;105;;-873;-10;7;-879;-15;11;;-49;500;1094;;1495;-189;-110;;1544;-689;-1204;;1416;-373;-1161;;229;0;-109;139;2191;-9303;-2941;100;;
08:02:40.975;0;-1;0;0;0;0;_I_gy_5p;100;;1630;150;147;;-12;88;0;0;0;12;;0;0;0;0;;0;0;0;0;0;0;0;150;0;;100;0;0;0;0;;0;0;0;0;;0;0;0;0;;-0;0;-0;-0;0;;21;0;31;3;;0;0;0;0;0;1;0;0;0;0;0;1;0;;123;77;-0;;150;140;50;0;0;0;1;1;0;0;0;255;;0;0;0;0;0;0;0;0;255;;0;0;0;1;1;0;0;0;255;;1;0;;0;0;0;0;-4469;-65;42;0;0;0;0;0;0;0;0;0;0;0;0;57;;1;1;1;368;0;0;0;0;0;0;0;123;-1;0;0;83;1040;194;0;0;194;228;59;19;;35;3;-966;-244;-31;-973;-258;0;6;-14;232;74;1917;0;2;-25;3;-8;-44;107;;-1141;-22;8;-1147;-27;12;;-44;482;1114;;1500;-207;-90;;1544;-689;-1204;;1416;-372;-1159;;236;0;-111;148;1773;-9280;-3276;100;;
08:02:41.075;0;-1;0;0;0;0;_I_gy_5p;100;;1630;150;147;;-12;80;0;0;0;12;;0;0;0;0;;0;0;0;0;0;0;0;150;0;;100;0;0;0;0;;0;0;0;0;;0;0;0;0;;-0;0;-0;-0;0;;20;0;34;3;;0;0;0;0;0;1;0;0;0;0;0;1;0;;129;71;-0;;150;140;50;0;0;0;1;1;0;0;0;255;;0;0;0;0;0;0;0;0;255;;0;0;0;0;1;0;0;0;255;;1;0;;0;0;0;0;-5567;-62;44;0;0;0;0;0;0;0;0;0;0;0;0;58;;1;1;1;368;0;0;0;0;0;0;0;123;-1;0;0;83;987;240;0;0;240;235;59;24;;35;2;-953;-281;-32;-960;-295;-1;1;-10;102;260;1287;-1;23;-64;0;5;-63;109;;-1289;-22;10;-1295;-27;14;;-49;481;1120;;1495;-208;-84;;1544;-689;-1204;;1416;-372;-1157;;244;0;-113;155;1437;-9175;-3708;100;;
08:02:41.175;0;-1;0;0;0;0;_I_gy_5p;100;;1630;150;147;;-12;62;0;0;0;12;;0;0;0;0;;0;0;0;0;0;0;0;150;0;;100;0;0;0;0;;0;0;0;0;;0;0;0;0;;-0;0;-0;-0;0;;21;0;26;3;;0;0;0;0;0;1;0;0;0;0;0;1;0;;116;84;-0;;150;140;50;0;0;0;1;1;0;0;0;255;;0;0;0;0;0;0;0;0;255;;0;0;0;1;1;0;0;0;255;;1;0;;0;0;0;0;-6746;-95;49;0;0;0;0;0;0;0;0;0;0;0;0;52;;1;1;1;368;0;0;0;0;0;0;0;123;-1;0;0;83;987;240;0;0;240;242;59;24;;35;1;-952;-294;-33;-959;-308;-3;1;-9;91;264;753;-1;12;-46;0;22;-91;111;;-1627;-17;13;-1633;-22;17;;-54;447;1140;;1490;-242;-64;;1544;-689;-1204;;1416;-372;-1155;;251;0;-117;162;1188;-9011;-4170;100;;
